filepath,filename,latitude,longitude,cluster,split
/home/data1/szq/Megadepth/Aerial_lifting_early/dji/process_lidar_mesh_szq/raw_pics/ed/pupper/images/survey/182f11527eb8f35f4a20bb4dc1dde422d98c649b.JPG,182f11527eb8f35f4a20bb4dc1dde422d98c649b.JPG,22.693396194,114.195025417,0,train
/home/data1/szq/Megadepth/Aerial_lifting_early/dji/process_lidar_mesh_szq/raw_pics/ed/pupper/images/survey/2d0cde7fa4d8f92be71952e5b575850b444b4a2e.JPG,2d0cde7fa4d8f92be71952e5b575850b444b4a2e.JPG,22.693329250,114.193522000,8,test
/home/data1/szq/Megadepth/Aerial_lifting_early/dji/process_lidar_mesh_szq/raw_pics/ed/pupper/images/survey/37416cabdff3705b6b9b63ac21481b8a54b58bd7.JPG,37416cabdff3705b6b9b63ac21481b8a54b58bd7.JPG,22.691135639,114.197679444,9,train
/home/data1/szq/Megadepth/Aerial_lifting_early/dji/process_lidar_mesh_szq/raw_pics/ed/pupper/images/survey/3c70885c373d806e397282c7cdbedd24bab139af.JPG,3c70885c373d806e397282c7cdbedd24bab139af.JPG,22.691469639,114.196210472,3,train
/home/data1/szq/Megadepth/Aerial_lifting_early/dji/process_lidar_mesh_szq/raw_pics/ed/pupper/images/survey/15444f9b914028197555ed48678dbb809c908152.JPG,15444f9b914028197555ed48678dbb809c908152.JPG,22.694810889,114.192772722,8,test
/home/data1/szq/Megadepth/Aerial_lifting_early/dji/process_lidar_mesh_szq/raw_pics/ed/pupper/images/survey/dba545633435724c534e985f380d9f8b4348a330.JPG,dba545633435724c534e985f380d9f8b4348a330.JPG,22.690061111,114.195360417,5,train
/home/data1/szq/Megadepth/Aerial_lifting_early/dji/process_lidar_mesh_szq/raw_pics/ed/pupper/images/survey/9c85f8ad91de1e6e92a4f44d6594e8b528d896a5.JPG,9c85f8ad91de1e6e92a4f44d6594e8b528d896a5.JPG,22.691154306,114.198122694,9,train
/home/data1/szq/Megadepth/Aerial_lifting_early/dji/process_lidar_mesh_szq/raw_pics/ed/pupper/images/survey/ad7e4cdfd7909cca4627410ebf51a90dadc7e5aa.JPG,ad7e4cdfd7909cca4627410ebf51a90dadc7e5aa.JPG,22.692725083,114.195404528,0,train
/home/data1/szq/Megadepth/Aerial_lifting_early/dji/process_lidar_mesh_szq/raw_pics/ed/pupper/images/survey/1ba1e00b5587ce1709b4c9b132b1f9b047298495.JPG,1ba1e00b5587ce1709b4c9b132b1f9b047298495.JPG,22.694959722,114.196695000,4,train
/home/data1/szq/Megadepth/Aerial_lifting_early/dji/process_lidar_mesh_szq/raw_pics/ed/pupper/images/survey/ba1413a5266776b50d9ed20cae90cdca8e1eb680.JPG,ba1413a5266776b50d9ed20cae90cdca8e1eb680.JPG,22.693784194,114.194905694,0,train
/home/data1/szq/Megadepth/Aerial_lifting_early/dji/process_lidar_mesh_szq/raw_pics/ed/pupper/images/survey/87b1721bd2ab3c1af4199fdb97af983324c98e98.JPG,87b1721bd2ab3c1af4199fdb97af983324c98e98.JPG,22.690767306,114.196380639,3,train
/home/data1/szq/Megadepth/Aerial_lifting_early/dji/process_lidar_mesh_szq/raw_pics/ed/pupper/images/survey/ecab4e13109965d96a281cc582bb92dcf0ee5be6.JPG,ecab4e13109965d96a281cc582bb92dcf0ee5be6.JPG,22.694326417,114.196164889,4,train
/home/data1/szq/Megadepth/Aerial_lifting_early/dji/process_lidar_mesh_szq/raw_pics/ed/pupper/images/survey/4adaea71384ff29ccc6ca5c08e59870b592cce28.JPG,4adaea71384ff29ccc6ca5c08e59870b592cce28.JPG,22.692312778,114.198135056,9,train
/home/data1/szq/Megadepth/Aerial_lifting_early/dji/process_lidar_mesh_szq/raw_pics/ed/pupper/images/survey/90b54a8db143c74b388162f56b41ca791e7e4100.JPG,90b54a8db143c74b388162f56b41ca791e7e4100.JPG,22.691459556,114.199377528,6,train
/home/data1/szq/Megadepth/Aerial_lifting_early/dji/process_lidar_mesh_szq/raw_pics/ed/pupper/images/survey/0fe2542b403a8ab22e56ccac779e0aef248326de.JPG,0fe2542b403a8ab22e56ccac779e0aef248326de.JPG,22.690352556,114.195025389,5,train
/home/data1/szq/Megadepth/Aerial_lifting_early/dji/process_lidar_mesh_szq/raw_pics/ed/pupper/images/survey/637c64f4f5f4dce9ba65626bfc838d9b3f87280b.JPG,637c64f4f5f4dce9ba65626bfc838d9b3f87280b.JPG,22.692312111,114.201526194,6,train
/home/data1/szq/Megadepth/Aerial_lifting_early/dji/process_lidar_mesh_szq/raw_pics/ed/pupper/images/survey/06c6839786fd9e81bfadd2383ac7847390fba290.JPG,06c6839786fd9e81bfadd2383ac7847390fba290.JPG,22.692037389,114.196950639,3,train
/home/data1/szq/Megadepth/Aerial_lifting_early/dji/process_lidar_mesh_szq/raw_pics/ed/pupper/images/survey/89ed36488147b4c115f0b998dbc5f9dd76a5b780.JPG,89ed36488147b4c115f0b998dbc5f9dd76a5b780.JPG,22.693494056,114.194983167,0,train
/home/data1/szq/Megadepth/Aerial_lifting_early/dji/process_lidar_mesh_szq/raw_pics/ed/pupper/images/survey/4eac8deca83e7131bb9af77c48d3d1b109ffef25.JPG,4eac8deca83e7131bb9af77c48d3d1b109ffef25.JPG,22.690827222,114.197671361,9,train
/home/data1/szq/Megadepth/Aerial_lifting_early/dji/process_lidar_mesh_szq/raw_pics/ed/pupper/images/survey/6383eb9ed988c4bf47623e639c7c71a7b3b5de91.JPG,6383eb9ed988c4bf47623e639c7c71a7b3b5de91.JPG,22.689655917,114.200342500,6,train
/home/data1/szq/Megadepth/Aerial_lifting_early/dji/process_lidar_mesh_szq/raw_pics/ed/pupper/images/survey/5663b5ac2522defa99e82073c1782227adad51d0.JPG,5663b5ac2522defa99e82073c1782227adad51d0.JPG,22.690666806,114.199857778,6,train
/home/data1/szq/Megadepth/Aerial_lifting_early/dji/process_lidar_mesh_szq/raw_pics/ed/pupper/images/survey/cc388bb41ed88f4736fd4e69dab6e6f61d2f9ed6.JPG,cc388bb41ed88f4736fd4e69dab6e6f61d2f9ed6.JPG,22.693193222,114.193529444,8,test
/home/data1/szq/Megadepth/Aerial_lifting_early/dji/process_lidar_mesh_szq/raw_pics/ed/pupper/images/survey/6af80e96e0b9b5c181b2b78d2cbf36f61f5fa0f5.JPG,6af80e96e0b9b5c181b2b78d2cbf36f61f5fa0f5.JPG,22.690545111,114.196674389,3,train
/home/data1/szq/Megadepth/Aerial_lifting_early/dji/process_lidar_mesh_szq/raw_pics/ed/pupper/images/survey/28b7688825781cdbb446ccdb3db5d484f1c9b59c.JPG,28b7688825781cdbb446ccdb3db5d484f1c9b59c.JPG,22.695239861,114.197641833,4,train
/home/data1/szq/Megadepth/Aerial_lifting_early/dji/process_lidar_mesh_szq/raw_pics/ed/pupper/images/survey/42d2af9f78ae35a633261cd029ea28f36859f885.JPG,42d2af9f78ae35a633261cd029ea28f36859f885.JPG,22.688053833,114.196264167,2,train
/home/data1/szq/Megadepth/Aerial_lifting_early/dji/process_lidar_mesh_szq/raw_pics/ed/pupper/images/survey/0f6544246749c1af73ee055baa7e04d4d67f5f38.JPG,0f6544246749c1af73ee055baa7e04d4d67f5f38.JPG,22.692642833,114.198736944,9,train
/home/data1/szq/Megadepth/Aerial_lifting_early/dji/process_lidar_mesh_szq/raw_pics/ed/pupper/images/survey/5a6e5a3545b62b6bf689bd09f93ab8428b763b1d.JPG,5a6e5a3545b62b6bf689bd09f93ab8428b763b1d.JPG,22.693615417,114.194513444,0,train
/home/data1/szq/Megadepth/Aerial_lifting_early/dji/process_lidar_mesh_szq/raw_pics/ed/pupper/images/survey/c140d0de72ac935041115b918bc90fe9e1621400.JPG,c140d0de72ac935041115b918bc90fe9e1621400.JPG,22.695943194,114.199859444,7,train
/home/data1/szq/Megadepth/Aerial_lifting_early/dji/process_lidar_mesh_szq/raw_pics/ed/pupper/images/survey/16b23f0343633f3e9b26f88f3a31fcd5db454d62.JPG,16b23f0343633f3e9b26f88f3a31fcd5db454d62.JPG,22.690976500,114.197810278,9,train
/home/data1/szq/Megadepth/Aerial_lifting_early/dji/process_lidar_mesh_szq/raw_pics/ed/pupper/images/survey/da3c2cf3c59fb40b7dabb641ed2301b5fd9ae736.JPG,da3c2cf3c59fb40b7dabb641ed2301b5fd9ae736.JPG,22.691249472,114.198078500,9,train
/home/data1/szq/Megadepth/Aerial_lifting_early/dji/process_lidar_mesh_szq/raw_pics/ed/pupper/images/survey/cac14bb1f10b817124606fcbe2e358ce929470b4.JPG,cac14bb1f10b817124606fcbe2e358ce929470b4.JPG,22.688157917,114.196403667,2,train
/home/data1/szq/Megadepth/Aerial_lifting_early/dji/process_lidar_mesh_szq/raw_pics/ed/pupper/images/survey/46f003525278561f27366d83e60fa97fb27a2a96.JPG,46f003525278561f27366d83e60fa97fb27a2a96.JPG,22.689388667,114.193717417,5,train
/home/data1/szq/Megadepth/Aerial_lifting_early/dji/process_lidar_mesh_szq/raw_pics/ed/pupper/images/survey/1a55d028aa51370c08daa5245eb0ce2d3f9d13dc.JPG,1a55d028aa51370c08daa5245eb0ce2d3f9d13dc.JPG,22.692828361,114.195992694,0,train
/home/data1/szq/Megadepth/Aerial_lifting_early/dji/process_lidar_mesh_szq/raw_pics/ed/pupper/images/survey/ad191a42b75f48718e7607aa3a66d76007cbe428.JPG,ad191a42b75f48718e7607aa3a66d76007cbe428.JPG,22.693841306,114.196885028,1,test
/home/data1/szq/Megadepth/Aerial_lifting_early/dji/process_lidar_mesh_szq/raw_pics/ed/pupper/images/survey/7466a069e416f249474a98979c363880c765ceb5.JPG,7466a069e416f249474a98979c363880c765ceb5.JPG,22.691938056,114.197580472,9,train
/home/data1/szq/Megadepth/Aerial_lifting_early/dji/process_lidar_mesh_szq/raw_pics/ed/pupper/images/survey/1c821b6de67faa15bb6454f7e4b4b80f42e81860.JPG,1c821b6de67faa15bb6454f7e4b4b80f42e81860.JPG,22.690129472,114.195311889,5,train
/home/data1/szq/Megadepth/Aerial_lifting_early/dji/process_lidar_mesh_szq/raw_pics/ed/pupper/images/survey/b20670d23dca6310c06d900f8e152decbe6de4cf.JPG,b20670d23dca6310c06d900f8e152decbe6de4cf.JPG,22.694789111,114.196229639,4,train
/home/data1/szq/Megadepth/Aerial_lifting_early/dji/process_lidar_mesh_szq/raw_pics/ed/pupper/images/survey/307ae147fec1c6832a47a8c4889f8670ab07079f.JPG,307ae147fec1c6832a47a8c4889f8670ab07079f.JPG,22.694650528,114.199190778,7,train
/home/data1/szq/Megadepth/Aerial_lifting_early/dji/process_lidar_mesh_szq/raw_pics/ed/pupper/images/survey/ff3ecd5c2b25093bbc72235a76256a5bac793eb7.JPG,ff3ecd5c2b25093bbc72235a76256a5bac793eb7.JPG,22.691375417,114.199073667,9,train
/home/data1/szq/Megadepth/Aerial_lifting_early/dji/process_lidar_mesh_szq/raw_pics/ed/pupper/images/survey/dffa1a7b456d5917a6ab225ebf6efe93966dd28c.JPG,dffa1a7b456d5917a6ab225ebf6efe93966dd28c.JPG,22.692040000,114.196907306,3,train
/home/data1/szq/Megadepth/Aerial_lifting_early/dji/process_lidar_mesh_szq/raw_pics/ed/pupper/images/survey/3b48002413d41ccb9ade1edc2a8d800586ea42d0.JPG,3b48002413d41ccb9ade1edc2a8d800586ea42d0.JPG,22.693506028,114.196518139,1,test
/home/data1/szq/Megadepth/Aerial_lifting_early/dji/process_lidar_mesh_szq/raw_pics/ed/pupper/images/survey/6b00db00a145c08d8fd892fdfa6a7547b429cd7c.JPG,6b00db00a145c08d8fd892fdfa6a7547b429cd7c.JPG,22.690069694,114.198620528,2,train
/home/data1/szq/Megadepth/Aerial_lifting_early/dji/process_lidar_mesh_szq/raw_pics/ed/pupper/images/survey/9016092a76abda2fd796c239eb75ccc857837d76.JPG,9016092a76abda2fd796c239eb75ccc857837d76.JPG,22.689099056,114.199086167,2,train
/home/data1/szq/Megadepth/Aerial_lifting_early/dji/process_lidar_mesh_szq/raw_pics/ed/pupper/images/survey/90423c51de817f38975d24fa532706edcb6c7166.JPG,90423c51de817f38975d24fa532706edcb6c7166.JPG,22.693406861,114.194028583,8,test
/home/data1/szq/Megadepth/Aerial_lifting_early/dji/process_lidar_mesh_szq/raw_pics/ed/pupper/images/survey/f00104eccdafc81632c2e6b2cc13d7027af7a6ab.JPG,f00104eccdafc81632c2e6b2cc13d7027af7a6ab.JPG,22.693241417,114.198516583,1,test
/home/data1/szq/Megadepth/Aerial_lifting_early/dji/process_lidar_mesh_szq/raw_pics/ed/pupper/images/survey/193981e749954aa39dc537e5ca059141ad93327c.JPG,193981e749954aa39dc537e5ca059141ad93327c.JPG,22.694555889,114.195611556,0,train
/home/data1/szq/Megadepth/Aerial_lifting_early/dji/process_lidar_mesh_szq/raw_pics/ed/pupper/images/survey/859e6a63abe2cf5b4a8d0637cd801d097f2532cd.JPG,859e6a63abe2cf5b4a8d0637cd801d097f2532cd.JPG,22.694085972,114.196642417,1,test
/home/data1/szq/Megadepth/Aerial_lifting_early/dji/process_lidar_mesh_szq/raw_pics/ed/pupper/images/survey/0018cb05a69b32f04efbe4c19f414cc1251fb2bf.JPG,0018cb05a69b32f04efbe4c19f414cc1251fb2bf.JPG,22.690613389,114.196405694,3,train
/home/data1/szq/Megadepth/Aerial_lifting_early/dji/process_lidar_mesh_szq/raw_pics/ed/pupper/images/survey/6da5709dde1bf47a634674f08b6540c14e06ecd7.JPG,6da5709dde1bf47a634674f08b6540c14e06ecd7.JPG,22.692490944,114.191899000,8,test
/home/data1/szq/Megadepth/Aerial_lifting_early/dji/process_lidar_mesh_szq/raw_pics/ed/pupper/images/survey/be88888cce234975476a4d74478447fe8be4f095.JPG,be88888cce234975476a4d74478447fe8be4f095.JPG,22.692187111,114.194364361,8,test
/home/data1/szq/Megadepth/Aerial_lifting_early/dji/process_lidar_mesh_szq/raw_pics/ed/pupper/images/survey/36ecc00a2ed4ed7a7dcefee95295ec4bc2cd553e.JPG,36ecc00a2ed4ed7a7dcefee95295ec4bc2cd553e.JPG,22.692643833,114.197436667,9,train
/home/data1/szq/Megadepth/Aerial_lifting_early/dji/process_lidar_mesh_szq/raw_pics/ed/pupper/images/survey/26b2c550f5920f4f0b21174563df539b4c161e03.JPG,26b2c550f5920f4f0b21174563df539b4c161e03.JPG,22.692507111,114.194217472,8,test
/home/data1/szq/Megadepth/Aerial_lifting_early/dji/process_lidar_mesh_szq/raw_pics/ed/pupper/images/survey/dbad934cbf8de7fa97106d64faf6dc903c5d3173.JPG,dbad934cbf8de7fa97106d64faf6dc903c5d3173.JPG,22.691368028,114.199053889,9,train
/home/data1/szq/Megadepth/Aerial_lifting_early/dji/process_lidar_mesh_szq/raw_pics/ed/pupper/images/survey/36e21b5dc7a57cb52a4f30e6dd38c3ff3767525e.JPG,36e21b5dc7a57cb52a4f30e6dd38c3ff3767525e.JPG,22.694748139,114.192806167,8,test
/home/data1/szq/Megadepth/Aerial_lifting_early/dji/process_lidar_mesh_szq/raw_pics/ed/pupper/images/survey/7fa2dc47421ac43dfe5c48611946b7d436b4e220.JPG,7fa2dc47421ac43dfe5c48611946b7d436b4e220.JPG,22.694003278,114.197851806,1,test
/home/data1/szq/Megadepth/Aerial_lifting_early/dji/process_lidar_mesh_szq/raw_pics/ed/pupper/images/survey/fab25a9d4031c8e730f7d635a562233cf177dd62.JPG,fab25a9d4031c8e730f7d635a562233cf177dd62.JPG,22.690285611,114.195237556,5,train
/home/data1/szq/Megadepth/Aerial_lifting_early/dji/process_lidar_mesh_szq/raw_pics/ed/pupper/images/survey/946ad277b20c7ac3bdfbee7eaca6caad3846243d.JPG,946ad277b20c7ac3bdfbee7eaca6caad3846243d.JPG,22.694468194,114.197979694,1,test
/home/data1/szq/Megadepth/Aerial_lifting_early/dji/process_lidar_mesh_szq/raw_pics/ed/pupper/images/survey/ec58e7d630b978789cfbe83c2b7ac0337b8fc1be.JPG,ec58e7d630b978789cfbe83c2b7ac0337b8fc1be.JPG,22.691291417,114.198565750,9,train
/home/data1/szq/Megadepth/Aerial_lifting_early/dji/process_lidar_mesh_szq/raw_pics/ed/pupper/images/survey/382788e425629405a2ceb44914456cd5623e6114.JPG,382788e425629405a2ceb44914456cd5623e6114.JPG,22.691155528,114.198512611,9,train
/home/data1/szq/Megadepth/Aerial_lifting_early/dji/process_lidar_mesh_szq/raw_pics/ed/pupper/images/survey/1a1bf038575b40924dc2fdb49adc1f77d3462e0c.JPG,1a1bf038575b40924dc2fdb49adc1f77d3462e0c.JPG,22.692214583,114.199009472,9,train
/home/data1/szq/Megadepth/Aerial_lifting_early/dji/process_lidar_mesh_szq/raw_pics/ed/pupper/images/survey/b4bd4bf06773cafdad737dd965fab81e01324247.JPG,b4bd4bf06773cafdad737dd965fab81e01324247.JPG,22.692915167,114.192888306,8,test
/home/data1/szq/Megadepth/Aerial_lifting_early/dji/process_lidar_mesh_szq/raw_pics/ed/pupper/images/survey/fa55e727988fcd813b6c417e492b6659e664837f.JPG,fa55e727988fcd813b6c417e492b6659e664837f.JPG,22.691509694,114.192925111,8,test
/home/data1/szq/Megadepth/Aerial_lifting_early/dji/process_lidar_mesh_szq/raw_pics/ed/pupper/images/survey/507470bcf7c91f9fe6b2471bf8adc724daa60734.JPG,507470bcf7c91f9fe6b2471bf8adc724daa60734.JPG,22.693899361,114.197279444,1,test
/home/data1/szq/Megadepth/Aerial_lifting_early/dji/process_lidar_mesh_szq/raw_pics/ed/pupper/images/survey/95cf359ac199eaa6f31989f9945f19d8cc9fc23d.JPG,95cf359ac199eaa6f31989f9945f19d8cc9fc23d.JPG,22.695154306,114.197209722,4,train
/home/data1/szq/Megadepth/Aerial_lifting_early/dji/process_lidar_mesh_szq/raw_pics/ed/pupper/images/survey/2b5f7163411f2512cc86ebbf0a17fa38cebcc084.JPG,2b5f7163411f2512cc86ebbf0a17fa38cebcc084.JPG,22.694869444,114.200180444,7,train
/home/data1/szq/Megadepth/Aerial_lifting_early/dji/process_lidar_mesh_szq/raw_pics/ed/pupper/images/survey/71d163a333cc3824997be22a491f51c2bc8c2687.JPG,71d163a333cc3824997be22a491f51c2bc8c2687.JPG,22.691411389,114.196236694,3,train
/home/data1/szq/Megadepth/Aerial_lifting_early/dji/process_lidar_mesh_szq/raw_pics/ed/pupper/images/survey/ace3f5ae58412999a3e549ff12c786d7f2075be4.JPG,ace3f5ae58412999a3e549ff12c786d7f2075be4.JPG,22.693505694,114.194258139,0,train
/home/data1/szq/Megadepth/Aerial_lifting_early/dji/process_lidar_mesh_szq/raw_pics/ed/pupper/images/survey/3c8ed070331819701f8214d48a86f716ec838903.JPG,3c8ed070331819701f8214d48a86f716ec838903.JPG,22.696953417,114.196894056,4,train
/home/data1/szq/Megadepth/Aerial_lifting_early/dji/process_lidar_mesh_szq/raw_pics/ed/pupper/images/survey/6ec90857438f66a1673958a5cbec1115ba0dcf33.JPG,6ec90857438f66a1673958a5cbec1115ba0dcf33.JPG,22.691475833,114.195974333,3,train
/home/data1/szq/Megadepth/Aerial_lifting_early/dji/process_lidar_mesh_szq/raw_pics/ed/pupper/images/survey/6734636dcefe653512df72759b24893fcefc77f8.JPG,6734636dcefe653512df72759b24893fcefc77f8.JPG,22.692483944,114.198853194,9,train
/home/data1/szq/Megadepth/Aerial_lifting_early/dji/process_lidar_mesh_szq/raw_pics/ed/pupper/images/survey/e183874c7fe68fd3933d413dd29a6fb39775a42e.JPG,e183874c7fe68fd3933d413dd29a6fb39775a42e.JPG,22.689373278,114.193673306,5,train
/home/data1/szq/Megadepth/Aerial_lifting_early/dji/process_lidar_mesh_szq/raw_pics/ed/pupper/images/survey/2e190e69ca7d96b890fcebba51ef393016d3fce4.JPG,2e190e69ca7d96b890fcebba51ef393016d3fce4.JPG,22.694250333,114.198517028,1,test
/home/data1/szq/Megadepth/Aerial_lifting_early/dji/process_lidar_mesh_szq/raw_pics/ed/pupper/images/survey/051f99090a1b168f3aab2cf4a8c13af3022cba09.JPG,051f99090a1b168f3aab2cf4a8c13af3022cba09.JPG,22.693104361,114.199915583,6,train
/home/data1/szq/Megadepth/Aerial_lifting_early/dji/process_lidar_mesh_szq/raw_pics/ed/pupper/images/survey/32570c1fc90ee616b93243d66e69c8b656e0fb41.JPG,32570c1fc90ee616b93243d66e69c8b656e0fb41.JPG,22.692276472,114.195839111,0,train
/home/data1/szq/Megadepth/Aerial_lifting_early/dji/process_lidar_mesh_szq/raw_pics/ed/pupper/images/survey/dad70d34439075d8bbf02b49d0642cce87d7d9b5.JPG,dad70d34439075d8bbf02b49d0642cce87d7d9b5.JPG,22.691788444,114.198567944,9,train
/home/data1/szq/Megadepth/Aerial_lifting_early/dji/process_lidar_mesh_szq/raw_pics/ed/pupper/images/survey/826f557972f451f0b64327a4082a0dbb31c4ec8a.JPG,826f557972f451f0b64327a4082a0dbb31c4ec8a.JPG,22.696021583,114.199546806,7,train
/home/data1/szq/Megadepth/Aerial_lifting_early/dji/process_lidar_mesh_szq/raw_pics/ed/pupper/images/survey/aa077f88e20b3a4b757a11051cda1a321836944d.JPG,aa077f88e20b3a4b757a11051cda1a321836944d.JPG,22.691869222,114.196473583,3,train
/home/data1/szq/Megadepth/Aerial_lifting_early/dji/process_lidar_mesh_szq/raw_pics/ed/pupper/images/survey/86bba30975b8928641067ff319c23a254fde3387.JPG,86bba30975b8928641067ff319c23a254fde3387.JPG,22.692902361,114.195278417,0,train
/home/data1/szq/Megadepth/Aerial_lifting_early/dji/process_lidar_mesh_szq/raw_pics/ed/pupper/images/survey/dd9d5db36a53f6c233eedbcd6cb74bc551aeb2c8.JPG,dd9d5db36a53f6c233eedbcd6cb74bc551aeb2c8.JPG,22.692519806,114.195341250,0,train
/home/data1/szq/Megadepth/Aerial_lifting_early/dji/process_lidar_mesh_szq/raw_pics/ed/pupper/images/survey/b50b560f0eb14f7960728b7b1e9f9be0856cfb0b.JPG,b50b560f0eb14f7960728b7b1e9f9be0856cfb0b.JPG,22.691311667,114.195051583,5,train
/home/data1/szq/Megadepth/Aerial_lifting_early/dji/process_lidar_mesh_szq/raw_pics/ed/pupper/images/survey/03914788a0c9cb6ddd653ea90ece220ea34edf04.JPG,03914788a0c9cb6ddd653ea90ece220ea34edf04.JPG,22.692512472,114.198888111,9,train
/home/data1/szq/Megadepth/Aerial_lifting_early/dji/process_lidar_mesh_szq/raw_pics/ed/pupper/images/survey/a9ff6d70df4e2d8cec5981c5d0e6cf5e2ae445b3.JPG,a9ff6d70df4e2d8cec5981c5d0e6cf5e2ae445b3.JPG,22.690964333,114.197819944,9,train
/home/data1/szq/Megadepth/Aerial_lifting_early/dji/process_lidar_mesh_szq/raw_pics/ed/pupper/images/survey/b8f0e06f5515e4e3af57dbc800cdf9045b09e1fc.JPG,b8f0e06f5515e4e3af57dbc800cdf9045b09e1fc.JPG,22.695834889,114.197381111,4,train
/home/data1/szq/Megadepth/Aerial_lifting_early/dji/process_lidar_mesh_szq/raw_pics/ed/pupper/images/survey/34c3f95a28df309bd7fdd8b058845a9ab77a4699.JPG,34c3f95a28df309bd7fdd8b058845a9ab77a4699.JPG,22.691947278,114.196675250,3,train
/home/data1/szq/Megadepth/Aerial_lifting_early/dji/process_lidar_mesh_szq/raw_pics/ed/pupper/images/survey/131cf4ef2df2b54ba4af7eac77c7a04e8de423be.JPG,131cf4ef2df2b54ba4af7eac77c7a04e8de423be.JPG,22.692723972,114.198936194,9,train
/home/data1/szq/Megadepth/Aerial_lifting_early/dji/process_lidar_mesh_szq/raw_pics/ed/pupper/images/survey/43381c8cb83509e9cbb6fbd0dfbe51d474e778f1.JPG,43381c8cb83509e9cbb6fbd0dfbe51d474e778f1.JPG,22.693543028,114.194343778,0,train
/home/data1/szq/Megadepth/Aerial_lifting_early/dji/process_lidar_mesh_szq/raw_pics/ed/pupper/images/survey/82af62a4cc6ab10b6748d9c08517374d640bcf18.JPG,82af62a4cc6ab10b6748d9c08517374d640bcf18.JPG,22.693723917,114.197098000,1,test
/home/data1/szq/Megadepth/Aerial_lifting_early/dji/process_lidar_mesh_szq/raw_pics/ed/pupper/images/survey/bf84f9537b99e5dd16f64f9403ac8ddf2f8d4571.JPG,bf84f9537b99e5dd16f64f9403ac8ddf2f8d4571.JPG,22.691953444,114.194216583,8,test
/home/data1/szq/Megadepth/Aerial_lifting_early/dji/process_lidar_mesh_szq/raw_pics/ed/pupper/images/survey/509940e0f4660ac84259cd3468fe704e3669cb40.JPG,509940e0f4660ac84259cd3468fe704e3669cb40.JPG,22.694149250,114.198260500,1,test
/home/data1/szq/Megadepth/Aerial_lifting_early/dji/process_lidar_mesh_szq/raw_pics/ed/pupper/images/survey/c05d0ddd723d4ba4c99519bc9c6dfde2cd62c1ea.JPG,c05d0ddd723d4ba4c99519bc9c6dfde2cd62c1ea.JPG,22.691725417,114.195870889,3,train
/home/data1/szq/Megadepth/Aerial_lifting_early/dji/process_lidar_mesh_szq/raw_pics/ed/pupper/images/survey/7ad43c5ad3dfb370ac6f3e2ce94fb07fc0d7569c.JPG,7ad43c5ad3dfb370ac6f3e2ce94fb07fc0d7569c.JPG,22.689978500,114.196895194,3,train
/home/data1/szq/Megadepth/Aerial_lifting_early/dji/process_lidar_mesh_szq/raw_pics/ed/pupper/images/survey/1bbeae9bd427a7ba1cb95cb7d749fa812dc9ec17.JPG,1bbeae9bd427a7ba1cb95cb7d749fa812dc9ec17.JPG,22.690717194,114.195039833,5,train
/home/data1/szq/Megadepth/Aerial_lifting_early/dji/process_lidar_mesh_szq/raw_pics/ed/pupper/images/survey/6af0a194fbe4ba1bd68918941fa53f800b65d55a.JPG,6af0a194fbe4ba1bd68918941fa53f800b65d55a.JPG,22.692465667,114.191837778,8,test
/home/data1/szq/Megadepth/Aerial_lifting_early/dji/process_lidar_mesh_szq/raw_pics/ed/pupper/images/survey/637006e5aefa00e224882bbe5a3dcc6a65d3541c.JPG,637006e5aefa00e224882bbe5a3dcc6a65d3541c.JPG,22.689430472,114.199813361,2,train
/home/data1/szq/Megadepth/Aerial_lifting_early/dji/process_lidar_mesh_szq/raw_pics/ed/pupper/images/survey/42803c652f1cbb20b5e5a9f1dd1c841a121f0f81.JPG,42803c652f1cbb20b5e5a9f1dd1c841a121f0f81.JPG,22.691695472,114.197688194,9,train
/home/data1/szq/Megadepth/Aerial_lifting_early/dji/process_lidar_mesh_szq/raw_pics/ed/pupper/images/survey/dea5b9aba69fe7ce79a33bb2c6c5d265d47d1c08.JPG,dea5b9aba69fe7ce79a33bb2c6c5d265d47d1c08.JPG,22.690742139,114.197449806,3,train
/home/data1/szq/Megadepth/Aerial_lifting_early/dji/process_lidar_mesh_szq/raw_pics/ed/pupper/images/survey/635472d702faa332a3553e2095cb85e4ba902f61.JPG,635472d702faa332a3553e2095cb85e4ba902f61.JPG,22.690276611,114.195241083,5,train
/home/data1/szq/Megadepth/Aerial_lifting_early/dji/process_lidar_mesh_szq/raw_pics/ed/pupper/images/survey/7639930e0374ee3380a4db880ed7a2a5a742a90d.JPG,7639930e0374ee3380a4db880ed7a2a5a742a90d.JPG,22.691957611,114.196985806,3,train
/home/data1/szq/Megadepth/Aerial_lifting_early/dji/process_lidar_mesh_szq/raw_pics/ed/pupper/images/survey/d1eca1db22f02625534bcb5fad1a072cb80df466.JPG,d1eca1db22f02625534bcb5fad1a072cb80df466.JPG,22.692846444,114.195306417,0,train
/home/data1/szq/Megadepth/Aerial_lifting_early/dji/process_lidar_mesh_szq/raw_pics/ed/pupper/images/survey/b0d9012a6fea53d8b1b9408c9b064150a74789bf.JPG,b0d9012a6fea53d8b1b9408c9b064150a74789bf.JPG,22.693389028,114.196205750,0,train
/home/data1/szq/Megadepth/Aerial_lifting_early/dji/process_lidar_mesh_szq/raw_pics/ed/pupper/images/survey/6dd9ee0a67fa4c794bcf20ddf4f4807d0d199c40.JPG,6dd9ee0a67fa4c794bcf20ddf4f4807d0d199c40.JPG,22.693709417,114.194771722,0,train
/home/data1/szq/Megadepth/Aerial_lifting_early/dji/process_lidar_mesh_szq/raw_pics/ed/pupper/images/survey/78874e1c2583f4302e15eff8520dcbfd2994a76f.JPG,78874e1c2583f4302e15eff8520dcbfd2994a76f.JPG,22.690888972,114.193969639,5,train
/home/data1/szq/Megadepth/Aerial_lifting_early/dji/process_lidar_mesh_szq/raw_pics/ed/pupper/images/survey/b91e27f11e91a91aa43c191603b04f2277122176.JPG,b91e27f11e91a91aa43c191603b04f2277122176.JPG,22.688714944,114.197489778,2,train
/home/data1/szq/Megadepth/Aerial_lifting_early/dji/process_lidar_mesh_szq/raw_pics/ed/pupper/images/survey/77b27b7fa001deb4fd2a6541039fc59dfe16aae7.JPG,77b27b7fa001deb4fd2a6541039fc59dfe16aae7.JPG,22.694348083,114.198780444,7,train
/home/data1/szq/Megadepth/Aerial_lifting_early/dji/process_lidar_mesh_szq/raw_pics/ed/pupper/images/survey/f30fc3c30839c0710f49072641ea17a586165969.JPG,f30fc3c30839c0710f49072641ea17a586165969.JPG,22.696007750,114.199503639,7,train
/home/data1/szq/Megadepth/Aerial_lifting_early/dji/process_lidar_mesh_szq/raw_pics/ed/pupper/images/survey/9a72cfe155058e89bff6d5b292bb4628a36d148b.JPG,9a72cfe155058e89bff6d5b292bb4628a36d148b.JPG,22.692725194,114.192442056,8,test
/home/data1/szq/Megadepth/Aerial_lifting_early/dji/process_lidar_mesh_szq/raw_pics/ed/pupper/images/survey/5adf5e353515b57c436574dd7e5af17130ab8ac1.JPG,5adf5e353515b57c436574dd7e5af17130ab8ac1.JPG,22.693115361,114.196333750,0,train
/home/data1/szq/Megadepth/Aerial_lifting_early/dji/process_lidar_mesh_szq/raw_pics/ed/pupper/images/survey/f6c108c9b8e1004458dc59ba8a1003fb7ef735dc.JPG,f6c108c9b8e1004458dc59ba8a1003fb7ef735dc.JPG,22.694516667,114.192923306,8,test
/home/data1/szq/Megadepth/Aerial_lifting_early/dji/process_lidar_mesh_szq/raw_pics/ed/pupper/images/survey/8d1ad7f75da5b828000021d2ef90a9b58253faab.JPG,8d1ad7f75da5b828000021d2ef90a9b58253faab.JPG,22.691170889,114.198547472,9,train
/home/data1/szq/Megadepth/Aerial_lifting_early/dji/process_lidar_mesh_szq/raw_pics/ed/pupper/images/survey/f5e1a89fe8842fea222d87d32ca2303f610a2ee1.JPG,f5e1a89fe8842fea222d87d32ca2303f610a2ee1.JPG,22.692372694,114.194929083,0,train
/home/data1/szq/Megadepth/Aerial_lifting_early/dji/process_lidar_mesh_szq/raw_pics/ed/pupper/images/survey/703228d503943e8c98c7b7862cd5ad4f654a4e4f.JPG,703228d503943e8c98c7b7862cd5ad4f654a4e4f.JPG,22.691328472,114.198952028,9,train
/home/data1/szq/Megadepth/Aerial_lifting_early/dji/process_lidar_mesh_szq/raw_pics/ed/pupper/images/survey/77c3cb79bacb0e051893aa6c82cb0a64293e543e.JPG,77c3cb79bacb0e051893aa6c82cb0a64293e543e.JPG,22.690776639,114.196369000,3,train
/home/data1/szq/Megadepth/Aerial_lifting_early/dji/process_lidar_mesh_szq/raw_pics/ed/pupper/images/survey/1b901031da058921d9b160671b4137dcec8e133d.JPG,1b901031da058921d9b160671b4137dcec8e133d.JPG,22.690770361,114.196393889,3,train
/home/data1/szq/Megadepth/Aerial_lifting_early/dji/process_lidar_mesh_szq/raw_pics/ed/pupper/images/survey/ac3bee7c6cac241f655176323d08893421d05c8e.JPG,ac3bee7c6cac241f655176323d08893421d05c8e.JPG,22.693331972,114.197158583,1,test
/home/data1/szq/Megadepth/Aerial_lifting_early/dji/process_lidar_mesh_szq/raw_pics/ed/pupper/images/survey/05589504a138d104c45153f14edb2bba94effe3b.JPG,05589504a138d104c45153f14edb2bba94effe3b.JPG,22.692458694,114.198030389,9,train
/home/data1/szq/Megadepth/Aerial_lifting_early/dji/process_lidar_mesh_szq/raw_pics/ed/pupper/images/survey/fabc9f37760d82bbf296ca57d30db0090b7d0fb7.JPG,fabc9f37760d82bbf296ca57d30db0090b7d0fb7.JPG,22.693532472,114.198390250,1,test
/home/data1/szq/Megadepth/Aerial_lifting_early/dji/process_lidar_mesh_szq/raw_pics/ed/pupper/images/survey/c69f9b077493c8c312760113d00d6a7a71d3db76.JPG,c69f9b077493c8c312760113d00d6a7a71d3db76.JPG,22.692915722,114.194936056,0,train
/home/data1/szq/Megadepth/Aerial_lifting_early/dji/process_lidar_mesh_szq/raw_pics/ed/pupper/images/survey/8baddf705c8a2ceefbc028b13a3ebc73bbdb32e0.JPG,8baddf705c8a2ceefbc028b13a3ebc73bbdb32e0.JPG,22.692470194,114.198860139,9,train
/home/data1/szq/Megadepth/Aerial_lifting_early/dji/process_lidar_mesh_szq/raw_pics/ed/pupper/images/survey/28b02523cc7358c9d86c73d89d3e90de08d389bc.JPG,28b02523cc7358c9d86c73d89d3e90de08d389bc.JPG,22.691945639,114.197577000,9,train
/home/data1/szq/Megadepth/Aerial_lifting_early/dji/process_lidar_mesh_szq/raw_pics/ed/pupper/images/survey/157851842d07a2fb0c4a8204283d4e7c9be219f1.JPG,157851842d07a2fb0c4a8204283d4e7c9be219f1.JPG,22.692133139,114.197428278,9,train
/home/data1/szq/Megadepth/Aerial_lifting_early/dji/process_lidar_mesh_szq/raw_pics/ed/pupper/images/survey/fd97e3a0c7a940edfbcb4bb67fca39ffdc95b7aa.JPG,fd97e3a0c7a940edfbcb4bb67fca39ffdc95b7aa.JPG,22.691580500,114.199597528,6,train
/home/data1/szq/Megadepth/Aerial_lifting_early/dji/process_lidar_mesh_szq/raw_pics/ed/pupper/images/survey/42dcda67d83c8523eb46969642cf4114446b1d6a.JPG,42dcda67d83c8523eb46969642cf4114446b1d6a.JPG,22.690832000,114.197404056,3,train
/home/data1/szq/Megadepth/Aerial_lifting_early/dji/process_lidar_mesh_szq/raw_pics/ed/pupper/images/survey/f32222a60d413706dc82d9d14adf399cd934e2b2.JPG,f32222a60d413706dc82d9d14adf399cd934e2b2.JPG,22.690700000,114.193485167,5,train
/home/data1/szq/Megadepth/Aerial_lifting_early/dji/process_lidar_mesh_szq/raw_pics/ed/pupper/images/survey/aa76f62728eaef68a6f4b348fd937266d0060dd1.JPG,aa76f62728eaef68a6f4b348fd937266d0060dd1.JPG,22.694986778,114.196764500,4,train
/home/data1/szq/Megadepth/Aerial_lifting_early/dji/process_lidar_mesh_szq/raw_pics/ed/pupper/images/survey/05635446c55409935e313309b82e4c021a3ac1c2.JPG,05635446c55409935e313309b82e4c021a3ac1c2.JPG,22.690869333,114.197489083,3,train
/home/data1/szq/Megadepth/Aerial_lifting_early/dji/process_lidar_mesh_szq/raw_pics/ed/pupper/images/survey/a7d28c420c84abbb1baa9453aa89b6a6531662f6.JPG,a7d28c420c84abbb1baa9453aa89b6a6531662f6.JPG,22.691640694,114.199423861,6,train
/home/data1/szq/Megadepth/Aerial_lifting_early/dji/process_lidar_mesh_szq/raw_pics/ed/pupper/images/survey/3318f8164bbcc149b2b6837631681c4bb67a0db1.JPG,3318f8164bbcc149b2b6837631681c4bb67a0db1.JPG,22.689920056,114.195064139,5,train
/home/data1/szq/Megadepth/Aerial_lifting_early/dji/process_lidar_mesh_szq/raw_pics/ed/pupper/images/survey/dbd730529a3c5e79f6ea605b7de4530322387a7a.JPG,dbd730529a3c5e79f6ea605b7de4530322387a7a.JPG,22.693084667,114.199911361,6,train
/home/data1/szq/Megadepth/Aerial_lifting_early/dji/process_lidar_mesh_szq/raw_pics/ed/pupper/images/survey/bf129298b25a6d5a0b6c8d08854101f8d8ae24ed.JPG,bf129298b25a6d5a0b6c8d08854101f8d8ae24ed.JPG,22.694266944,114.194826583,0,train
/home/data1/szq/Megadepth/Aerial_lifting_early/dji/process_lidar_mesh_szq/raw_pics/ed/pupper/images/survey/c6c7ccb51bd23bdfc0afa405ff60cbf06fc9fe81.JPG,c6c7ccb51bd23bdfc0afa405ff60cbf06fc9fe81.JPG,22.690293750,114.196032583,3,train
/home/data1/szq/Megadepth/Aerial_lifting_early/dji/process_lidar_mesh_szq/raw_pics/ed/pupper/images/survey/e8150f6ec50ba0b385337f866df3a27a263b4871.JPG,e8150f6ec50ba0b385337f866df3a27a263b4871.JPG,22.694011056,114.197874556,1,test
/home/data1/szq/Megadepth/Aerial_lifting_early/dji/process_lidar_mesh_szq/raw_pics/ed/pupper/images/survey/473915ad0d45fdc8778113a3c63d69846013c2a3.JPG,473915ad0d45fdc8778113a3c63d69846013c2a3.JPG,22.691065833,114.198163944,9,train
/home/data1/szq/Megadepth/Aerial_lifting_early/dji/process_lidar_mesh_szq/raw_pics/ed/pupper/images/survey/266ac49777612976ef8dc1e23adb55a60c97ffbd.JPG,266ac49777612976ef8dc1e23adb55a60c97ffbd.JPG,22.691276389,114.198577500,9,train
/home/data1/szq/Megadepth/Aerial_lifting_early/dji/process_lidar_mesh_szq/raw_pics/ed/pupper/images/survey/cc09df16251490c61f4493a01562e3f6d37e2f6e.JPG,cc09df16251490c61f4493a01562e3f6d37e2f6e.JPG,22.692358167,114.199080861,9,train
/home/data1/szq/Megadepth/Aerial_lifting_early/dji/process_lidar_mesh_szq/raw_pics/ed/pupper/images/survey/d6f3fccdc155856ca706aad8212fcd203c225f24.JPG,d6f3fccdc155856ca706aad8212fcd203c225f24.JPG,22.692094556,114.197512639,9,train
/home/data1/szq/Megadepth/Aerial_lifting_early/dji/process_lidar_mesh_szq/raw_pics/ed/pupper/images/survey/beeb55b052c2a9dee593f52efaa64ecf73db9bb1.JPG,beeb55b052c2a9dee593f52efaa64ecf73db9bb1.JPG,22.692755583,114.201321500,6,train
/home/data1/szq/Megadepth/Aerial_lifting_early/dji/process_lidar_mesh_szq/raw_pics/ed/pupper/images/survey/5602c4d07abbe70de091198573d5ab16c27f5559.JPG,5602c4d07abbe70de091198573d5ab16c27f5559.JPG,22.692099111,114.194162778,8,test
/home/data1/szq/Megadepth/Aerial_lifting_early/dji/process_lidar_mesh_szq/raw_pics/ed/pupper/images/survey/a9390809cff35a05220e8e5510033d100665b4ef.JPG,a9390809cff35a05220e8e5510033d100665b4ef.JPG,22.691779639,114.199351111,6,train
/home/data1/szq/Megadepth/Aerial_lifting_early/dji/process_lidar_mesh_szq/raw_pics/ed/pupper/images/survey/431560e674ff7f5e3cba4ed4c6e659fef7e9630f.JPG,431560e674ff7f5e3cba4ed4c6e659fef7e9630f.JPG,22.691286194,114.192401306,8,test
/home/data1/szq/Megadepth/Aerial_lifting_early/dji/process_lidar_mesh_szq/raw_pics/ed/pupper/images/survey/b9ba0ab2c482e976559aa9f9dc740e0bc4a4620e.JPG,b9ba0ab2c482e976559aa9f9dc740e0bc4a4620e.JPG,22.690416833,114.196349972,3,train
/home/data1/szq/Megadepth/Aerial_lifting_early/dji/process_lidar_mesh_szq/raw_pics/ed/pupper/images/survey/2ffaf8c2fe592d17c761b2cb3127c841f0bd816b.JPG,2ffaf8c2fe592d17c761b2cb3127c841f0bd816b.JPG,22.695616972,114.198462889,7,train
/home/data1/szq/Megadepth/Aerial_lifting_early/dji/process_lidar_mesh_szq/raw_pics/ed/pupper/images/survey/76cfefd832f4365b0e5484dac5ef6d93c396bdd2.JPG,76cfefd832f4365b0e5484dac5ef6d93c396bdd2.JPG,22.695439222,114.197974778,4,train
/home/data1/szq/Megadepth/Aerial_lifting_early/dji/process_lidar_mesh_szq/raw_pics/ed/pupper/images/survey/2676f2480ccf9b205cc41be3708faa90bc68aeba.JPG,2676f2480ccf9b205cc41be3708faa90bc68aeba.JPG,22.692612611,114.195424806,0,train
/home/data1/szq/Megadepth/Aerial_lifting_early/dji/process_lidar_mesh_szq/raw_pics/ed/pupper/images/survey/e41dc3b895a4f81f43e6f043b9003452fea65d44.JPG,e41dc3b895a4f81f43e6f043b9003452fea65d44.JPG,22.690932000,114.197655889,9,train
/home/data1/szq/Megadepth/Aerial_lifting_early/dji/process_lidar_mesh_szq/raw_pics/ed/pupper/images/survey/ba7937164118acf4e41e34e9a3c437f586a877ac.JPG,ba7937164118acf4e41e34e9a3c437f586a877ac.JPG,22.693997750,114.194723944,0,train
/home/data1/szq/Megadepth/Aerial_lifting_early/dji/process_lidar_mesh_szq/raw_pics/ed/pupper/images/survey/347c2286cd1e0bdceae0c89c0652d3fa7eec9d2c.JPG,347c2286cd1e0bdceae0c89c0652d3fa7eec9d2c.JPG,22.692661472,114.198832278,9,train
/home/data1/szq/Megadepth/Aerial_lifting_early/dji/process_lidar_mesh_szq/raw_pics/ed/pupper/images/survey/f267fe6639e587451536f88485fe31d13a318073.JPG,f267fe6639e587451536f88485fe31d13a318073.JPG,22.692524139,114.195339389,0,train
/home/data1/szq/Megadepth/Aerial_lifting_early/dji/process_lidar_mesh_szq/raw_pics/ed/pupper/images/survey/d5ad2ef2596c52b883b8d6ab9cfab2b032aaaa17.JPG,d5ad2ef2596c52b883b8d6ab9cfab2b032aaaa17.JPG,22.693070833,114.201173667,6,train
/home/data1/szq/Megadepth/Aerial_lifting_early/dji/process_lidar_mesh_szq/raw_pics/ed/pupper/images/survey/09af44e79834ab089fc397ad40309a675602f79e.JPG,09af44e79834ab089fc397ad40309a675602f79e.JPG,22.696139389,114.197248111,4,train
/home/data1/szq/Megadepth/Aerial_lifting_early/dji/process_lidar_mesh_szq/raw_pics/ed/pupper/images/survey/cb939b6575591ef3480428f8a4092f2712245b03.JPG,cb939b6575591ef3480428f8a4092f2712245b03.JPG,22.695618778,114.198469306,7,train
/home/data1/szq/Megadepth/Aerial_lifting_early/dji/process_lidar_mesh_szq/raw_pics/ed/pupper/images/survey/86c61ae8b7ed080c6492bde424caaed0d857a19c.JPG,86c61ae8b7ed080c6492bde424caaed0d857a19c.JPG,22.693002194,114.199664722,6,train
/home/data1/szq/Megadepth/Aerial_lifting_early/dji/process_lidar_mesh_szq/raw_pics/ed/pupper/images/survey/80ea8b385195b4f050b97c9f77e66d7ae6ee4f3d.JPG,80ea8b385195b4f050b97c9f77e66d7ae6ee4f3d.JPG,22.690886361,114.196297194,3,train
/home/data1/szq/Megadepth/Aerial_lifting_early/dji/process_lidar_mesh_szq/raw_pics/ed/pupper/images/survey/59a56096eaec5f064227ca1e3840b6fd634238e5.JPG,59a56096eaec5f064227ca1e3840b6fd634238e5.JPG,22.693689639,114.197018583,1,test
/home/data1/szq/Megadepth/Aerial_lifting_early/dji/process_lidar_mesh_szq/raw_pics/ed/pupper/images/survey/596eeb95aba1d2c3bcdaf25529a2d4be3a12e607.JPG,596eeb95aba1d2c3bcdaf25529a2d4be3a12e607.JPG,22.690468028,114.192897278,5,train
/home/data1/szq/Megadepth/Aerial_lifting_early/dji/process_lidar_mesh_szq/raw_pics/ed/pupper/images/survey/7c8469d543f74dc65fed60b43634cfc32f208b5e.JPG,7c8469d543f74dc65fed60b43634cfc32f208b5e.JPG,22.692198389,114.194521333,8,test
/home/data1/szq/Megadepth/Aerial_lifting_early/dji/process_lidar_mesh_szq/raw_pics/ed/pupper/images/survey/6f2a374496962796a7ad0ac6cfe9a2cea5fdc72b.JPG,6f2a374496962796a7ad0ac6cfe9a2cea5fdc72b.JPG,22.690705222,114.196586250,3,train
/home/data1/szq/Megadepth/Aerial_lifting_early/dji/process_lidar_mesh_szq/raw_pics/ed/pupper/images/survey/ce703a74b55d70a59b9bd209825dc6c5ac7eab2d.JPG,ce703a74b55d70a59b9bd209825dc6c5ac7eab2d.JPG,22.692793028,114.199121972,6,train
/home/data1/szq/Megadepth/Aerial_lifting_early/dji/process_lidar_mesh_szq/raw_pics/ed/pupper/images/survey/1bac52bf5be42623ad63a6219f94b43b02aaac7f.JPG,1bac52bf5be42623ad63a6219f94b43b02aaac7f.JPG,22.689481194,114.198890361,2,train
/home/data1/szq/Megadepth/Aerial_lifting_early/dji/process_lidar_mesh_szq/raw_pics/ed/pupper/images/survey/25626abec08a9938bb4d897b05893b9dcb56c8c1.JPG,25626abec08a9938bb4d897b05893b9dcb56c8c1.JPG,22.691082917,114.198173083,9,train
/home/data1/szq/Megadepth/Aerial_lifting_early/dji/process_lidar_mesh_szq/raw_pics/ed/pupper/images/survey/44ff6642dc51ba061da7a8a074573807ca91b411.JPG,44ff6642dc51ba061da7a8a074573807ca91b411.JPG,22.691469250,114.199373972,6,train
/home/data1/szq/Megadepth/Aerial_lifting_early/dji/process_lidar_mesh_szq/raw_pics/ed/pupper/images/survey/d42c96d41818be0074abd07aa4899dfdb1a1fe54.JPG,d42c96d41818be0074abd07aa4899dfdb1a1fe54.JPG,22.691368139,114.195196139,5,train
/home/data1/szq/Megadepth/Aerial_lifting_early/dji/process_lidar_mesh_szq/raw_pics/ed/pupper/images/survey/01b5764a29ce1b5ee97dcbcd750ff09feb59471f.JPG,01b5764a29ce1b5ee97dcbcd750ff09feb59471f.JPG,22.695603667,114.198421806,7,train
/home/data1/szq/Megadepth/Aerial_lifting_early/dji/process_lidar_mesh_szq/raw_pics/ed/pupper/images/survey/e81e88a959b6f7490c296ac5b50e2e82b726e5de.JPG,e81e88a959b6f7490c296ac5b50e2e82b726e5de.JPG,22.692843694,114.193767389,8,test
/home/data1/szq/Megadepth/Aerial_lifting_early/dji/process_lidar_mesh_szq/raw_pics/ed/pupper/images/survey/1f6ae670753f626f9441cfe3a29f79cc57c443ac.JPG,1f6ae670753f626f9441cfe3a29f79cc57c443ac.JPG,22.695515778,114.198182250,7,train
/home/data1/szq/Megadepth/Aerial_lifting_early/dji/process_lidar_mesh_szq/raw_pics/ed/pupper/images/survey/d3bd6e5cb170eee226285e854b6dfd73715e9bfe.JPG,d3bd6e5cb170eee226285e854b6dfd73715e9bfe.JPG,22.695213861,114.197382750,4,train
/home/data1/szq/Megadepth/Aerial_lifting_early/dji/process_lidar_mesh_szq/raw_pics/ed/pupper/images/survey/236bc5a986236340970ca15e21f838da07e85931.JPG,236bc5a986236340970ca15e21f838da07e85931.JPG,22.694060139,114.198011833,1,test
/home/data1/szq/Megadepth/Aerial_lifting_early/dji/process_lidar_mesh_szq/raw_pics/ed/pupper/images/survey/e66dd14f2ea3e0e452c02753760b9d476ca88360.JPG,e66dd14f2ea3e0e452c02753760b9d476ca88360.JPG,22.691245500,114.194881694,5,train
/home/data1/szq/Megadepth/Aerial_lifting_early/dji/process_lidar_mesh_szq/raw_pics/ed/pupper/images/survey/15d037c3a0e1141db7ad1636c868776f53f7ce75.JPG,15d037c3a0e1141db7ad1636c868776f53f7ce75.JPG,22.694208917,114.193078333,8,test
/home/data1/szq/Megadepth/Aerial_lifting_early/dji/process_lidar_mesh_szq/raw_pics/ed/pupper/images/survey/5f617f9c6cd78c7e6cec7b5395d3350e6d81cc34.JPG,5f617f9c6cd78c7e6cec7b5395d3350e6d81cc34.JPG,22.694912250,114.196561667,4,train
/home/data1/szq/Megadepth/Aerial_lifting_early/dji/process_lidar_mesh_szq/raw_pics/ed/pupper/images/survey/6ae75b4bb49e3babc286b23422cbd28f2f1059a9.JPG,6ae75b4bb49e3babc286b23422cbd28f2f1059a9.JPG,22.692188417,114.194496611,8,test
/home/data1/szq/Megadepth/Aerial_lifting_early/dji/process_lidar_mesh_szq/raw_pics/ed/pupper/images/survey/b7612f5bd0cdab22525376ea6a22161936243770.JPG,b7612f5bd0cdab22525376ea6a22161936243770.JPG,22.691162556,114.198524667,9,train
/home/data1/szq/Megadepth/Aerial_lifting_early/dji/process_lidar_mesh_szq/raw_pics/ed/pupper/images/survey/b93120f9878d9ad929d20609eebd164698a874f2.JPG,b93120f9878d9ad929d20609eebd164698a874f2.JPG,22.691512944,114.195849611,3,train
/home/data1/szq/Megadepth/Aerial_lifting_early/dji/process_lidar_mesh_szq/raw_pics/ed/pupper/images/survey/1baaa182bc958747830849cd640a781bea2a2cff.JPG,1baaa182bc958747830849cd640a781bea2a2cff.JPG,22.688728083,114.197485583,2,train
/home/data1/szq/Megadepth/Aerial_lifting_early/dji/process_lidar_mesh_szq/raw_pics/ed/pupper/images/survey/0491739b804f7801830a841fe88978d5188c62be.JPG,0491739b804f7801830a841fe88978d5188c62be.JPG,22.694007583,114.197870250,1,test
/home/data1/szq/Megadepth/Aerial_lifting_early/dji/process_lidar_mesh_szq/raw_pics/ed/pupper/images/survey/01252272a7c300d49aab67270a17224d752edc4b.JPG,01252272a7c300d49aab67270a17224d752edc4b.JPG,22.690044250,114.195392361,5,train
/home/data1/szq/Megadepth/Aerial_lifting_early/dji/process_lidar_mesh_szq/raw_pics/ed/pupper/images/survey/906408fd2a1c73da6d799b7f44140ac5b993fe61.JPG,906408fd2a1c73da6d799b7f44140ac5b993fe61.JPG,22.691652583,114.199427361,6,train
/home/data1/szq/Megadepth/Aerial_lifting_early/dji/process_lidar_mesh_szq/raw_pics/ed/pupper/images/survey/3887a8dd863e5bdfb20b951d9c3203a2561070d6.JPG,3887a8dd863e5bdfb20b951d9c3203a2561070d6.JPG,22.693615528,114.193377194,8,test
/home/data1/szq/Megadepth/Aerial_lifting_early/dji/process_lidar_mesh_szq/raw_pics/ed/pupper/images/survey/536288456a841f2abc9de6e7b9a78190d2095025.JPG,536288456a841f2abc9de6e7b9a78190d2095025.JPG,22.693729750,114.194777222,0,train
/home/data1/szq/Megadepth/Aerial_lifting_early/dji/process_lidar_mesh_szq/raw_pics/ed/pupper/images/survey/f50bcf810cba04e16bfa8532693ed58cc7953973.JPG,f50bcf810cba04e16bfa8532693ed58cc7953973.JPG,22.693063194,114.199814444,6,train
/home/data1/szq/Megadepth/Aerial_lifting_early/dji/process_lidar_mesh_szq/raw_pics/ed/pupper/images/survey/66aec2c753709653fd929da880ce828a7c9c27ae.JPG,66aec2c753709653fd929da880ce828a7c9c27ae.JPG,22.692160389,114.197223694,9,train
/home/data1/szq/Megadepth/Aerial_lifting_early/dji/process_lidar_mesh_szq/raw_pics/ed/pupper/images/survey/48032ca8d5c2483d87b1b0a9a2f6f774fd2da3e4.JPG,48032ca8d5c2483d87b1b0a9a2f6f774fd2da3e4.JPG,22.692806944,114.194080278,8,test
/home/data1/szq/Megadepth/Aerial_lifting_early/dji/process_lidar_mesh_szq/raw_pics/ed/pupper/images/survey/e9c5c1612e9f9b8c1de97c55a0135e8518e6de84.JPG,e9c5c1612e9f9b8c1de97c55a0135e8518e6de84.JPG,22.691307389,114.198049722,9,train
/home/data1/szq/Megadepth/Aerial_lifting_early/dji/process_lidar_mesh_szq/raw_pics/ed/pupper/images/survey/32d54b3e4e5523c845804642b9cfb9578ea2d226.JPG,32d54b3e4e5523c845804642b9cfb9578ea2d226.JPG,22.691658083,114.194365806,8,test
/home/data1/szq/Megadepth/Aerial_lifting_early/dji/process_lidar_mesh_szq/raw_pics/ed/pupper/images/survey/e902062540d4b391ea6939e16691f327f25b60e6.JPG,e902062540d4b391ea6939e16691f327f25b60e6.JPG,22.692626000,114.200110250,6,train
/home/data1/szq/Megadepth/Aerial_lifting_early/dji/process_lidar_mesh_szq/raw_pics/ed/pupper/images/survey/7e3a2b2924f1ff24ecb1579ac1a87329e27de993.JPG,7e3a2b2924f1ff24ecb1579ac1a87329e27de993.JPG,22.693421500,114.200729833,6,train
/home/data1/szq/Megadepth/Aerial_lifting_early/dji/process_lidar_mesh_szq/raw_pics/ed/pupper/images/survey/54ecc9d60d80625392b8a80e7de81f993a575e0c.JPG,54ecc9d60d80625392b8a80e7de81f993a575e0c.JPG,22.694232611,114.198474028,1,test
/home/data1/szq/Megadepth/Aerial_lifting_early/dji/process_lidar_mesh_szq/raw_pics/ed/pupper/images/survey/7caf389f81e470f480501d7d019fa52f30ef8774.JPG,7caf389f81e470f480501d7d019fa52f30ef8774.JPG,22.693698750,114.196814222,1,test
/home/data1/szq/Megadepth/Aerial_lifting_early/dji/process_lidar_mesh_szq/raw_pics/ed/pupper/images/survey/5f0b277f51872425b865b5ca157b0845e208cbb3.JPG,5f0b277f51872425b865b5ca157b0845e208cbb3.JPG,22.692974056,114.199578694,6,train
/home/data1/szq/Megadepth/Aerial_lifting_early/dji/process_lidar_mesh_szq/raw_pics/ed/pupper/images/survey/2950f062dd69be7f887e25b7009be3d63b8cfc50.JPG,2950f062dd69be7f887e25b7009be3d63b8cfc50.JPG,22.692869417,114.196080667,0,train
/home/data1/szq/Megadepth/Aerial_lifting_early/dji/process_lidar_mesh_szq/raw_pics/ed/pupper/images/survey/ed4ebdfe31b4937315c5a7b1b5abe28b63ac9736.JPG,ed4ebdfe31b4937315c5a7b1b5abe28b63ac9736.JPG,22.692588611,114.198591722,9,train
/home/data1/szq/Megadepth/Aerial_lifting_early/dji/process_lidar_mesh_szq/raw_pics/ed/pupper/images/survey/40d1dfa9fb8c32638936ab9d55ac7663bcb474f2.JPG,40d1dfa9fb8c32638936ab9d55ac7663bcb474f2.JPG,22.691595361,114.195774250,3,train
/home/data1/szq/Megadepth/Aerial_lifting_early/dji/process_lidar_mesh_szq/raw_pics/ed/pupper/images/survey/2a6092b7dd7eebfeb85f51f42abd64a702d4892f.JPG,2a6092b7dd7eebfeb85f51f42abd64a702d4892f.JPG,22.693265917,114.198666583,1,test
/home/data1/szq/Megadepth/Aerial_lifting_early/dji/process_lidar_mesh_szq/raw_pics/ed/pupper/images/survey/4b99183dc3187de43e573da38ced8dbf69ffb99b.JPG,4b99183dc3187de43e573da38ced8dbf69ffb99b.JPG,22.690364306,114.195019361,5,train
/home/data1/szq/Megadepth/Aerial_lifting_early/dji/process_lidar_mesh_szq/raw_pics/ed/pupper/images/survey/013521f9d9cf40a9a9b742ba8110260d6f799ec7.JPG,013521f9d9cf40a9a9b742ba8110260d6f799ec7.JPG,22.691741472,114.193462611,8,test
/home/data1/szq/Megadepth/Aerial_lifting_early/dji/process_lidar_mesh_szq/raw_pics/ed/pupper/images/survey/4e54852bea67967216bdc64e1d48dd51207b8a9d.JPG,4e54852bea67967216bdc64e1d48dd51207b8a9d.JPG,22.691281917,114.194977500,5,train
/home/data1/szq/Megadepth/Aerial_lifting_early/dji/process_lidar_mesh_szq/raw_pics/ed/pupper/images/survey/fd1227d9d2625fdb7a9cabca5804a0dc88bd0dd2.JPG,fd1227d9d2625fdb7a9cabca5804a0dc88bd0dd2.JPG,22.691887944,114.200452111,6,train
/home/data1/szq/Megadepth/Aerial_lifting_early/dji/process_lidar_mesh_szq/raw_pics/ed/pupper/images/survey/6d5a06e25961a1f4aaf90fe2639d582c8da6a3d6.JPG,6d5a06e25961a1f4aaf90fe2639d582c8da6a3d6.JPG,22.693834472,114.198259056,1,test
/home/data1/szq/Megadepth/Aerial_lifting_early/dji/process_lidar_mesh_szq/raw_pics/ed/pupper/images/survey/3835ce7a52e9c1c3620ec7f6632a5100e8c77aaf.JPG,3835ce7a52e9c1c3620ec7f6632a5100e8c77aaf.JPG,22.691790639,114.197829028,9,train
/home/data1/szq/Megadepth/Aerial_lifting_early/dji/process_lidar_mesh_szq/raw_pics/ed/pupper/images/survey/7d9836a50f47e9deff5ebd0b6e522808b499cd73.JPG,7d9836a50f47e9deff5ebd0b6e522808b499cd73.JPG,22.694904139,114.200340694,7,train
/home/data1/szq/Megadepth/Aerial_lifting_early/dji/process_lidar_mesh_szq/raw_pics/ed/pupper/images/survey/79677b82f936759cbadc7fb1a6bac89e1427c674.JPG,79677b82f936759cbadc7fb1a6bac89e1427c674.JPG,22.696082056,114.199705972,7,train
/home/data1/szq/Megadepth/Aerial_lifting_early/dji/process_lidar_mesh_szq/raw_pics/ed/pupper/images/survey/9792e5d7ec215edaa45d0a0214ebd15b0926ce42.JPG,9792e5d7ec215edaa45d0a0214ebd15b0926ce42.JPG,22.692970667,114.195082639,0,train
/home/data1/szq/Megadepth/Aerial_lifting_early/dji/process_lidar_mesh_szq/raw_pics/ed/pupper/images/survey/b4e21cc662318c2c2cc70b6d32258cbac6baf142.JPG,b4e21cc662318c2c2cc70b6d32258cbac6baf142.JPG,22.692964000,114.196308667,0,train
/home/data1/szq/Megadepth/Aerial_lifting_early/dji/process_lidar_mesh_szq/raw_pics/ed/pupper/images/survey/965f19365f8d96b201696a4333a87a2e2d6ef828.JPG,965f19365f8d96b201696a4333a87a2e2d6ef828.JPG,22.692847889,114.199253250,6,train
/home/data1/szq/Megadepth/Aerial_lifting_early/dji/process_lidar_mesh_szq/raw_pics/ed/pupper/images/survey/fffee86497a4148642c98e43e2bb2415bac53314.JPG,fffee86497a4148642c98e43e2bb2415bac53314.JPG,22.692285750,114.194731972,8,test
/home/data1/szq/Megadepth/Aerial_lifting_early/dji/process_lidar_mesh_szq/raw_pics/ed/pupper/images/survey/df19f81474220d5e896b5acf575ae5df1ae46527.JPG,df19f81474220d5e896b5acf575ae5df1ae46527.JPG,22.692322139,114.194583611,8,test
/home/data1/szq/Megadepth/Aerial_lifting_early/dji/process_lidar_mesh_szq/raw_pics/ed/pupper/images/survey/eef17c9c23330f1e841e313dfb5b5d4a2da52af3.JPG,eef17c9c23330f1e841e313dfb5b5d4a2da52af3.JPG,22.694993778,114.197752639,4,train
/home/data1/szq/Megadepth/Aerial_lifting_early/dji/process_lidar_mesh_szq/raw_pics/ed/pupper/images/survey/a78876fe9255e947a56fcf1c9d3e033ac0416d61.JPG,a78876fe9255e947a56fcf1c9d3e033ac0416d61.JPG,22.691855250,114.199315361,6,train
/home/data1/szq/Megadepth/Aerial_lifting_early/dji/process_lidar_mesh_szq/raw_pics/ed/pupper/images/survey/8f8da85977ba9375ff024b60723c14a74555cdb7.JPG,8f8da85977ba9375ff024b60723c14a74555cdb7.JPG,22.694629972,114.195805000,4,train
/home/data1/szq/Megadepth/Aerial_lifting_early/dji/process_lidar_mesh_szq/raw_pics/ed/pupper/images/survey/e8c9cda3bfaa62dc722851a9121bd60c41710f0e.JPG,e8c9cda3bfaa62dc722851a9121bd60c41710f0e.JPG,22.692689944,114.197254694,1,test
/home/data1/szq/Megadepth/Aerial_lifting_early/dji/process_lidar_mesh_szq/raw_pics/ed/pupper/images/survey/b500315ed2af00f7507e469d799c7ec5251cf2d3.JPG,b500315ed2af00f7507e469d799c7ec5251cf2d3.JPG,22.688461250,114.196994306,2,train
/home/data1/szq/Megadepth/Aerial_lifting_early/dji/process_lidar_mesh_szq/raw_pics/ed/pupper/images/survey/ec5ad23de36cbf64820d422ff5957479b0627c09.JPG,ec5ad23de36cbf64820d422ff5957479b0627c09.JPG,22.694410472,114.198949444,7,train
/home/data1/szq/Megadepth/Aerial_lifting_early/dji/process_lidar_mesh_szq/raw_pics/ed/pupper/images/survey/a3f039c769614b11776c590a1797af2f69aec00b.JPG,a3f039c769614b11776c590a1797af2f69aec00b.JPG,22.690872917,114.196483500,3,train
/home/data1/szq/Megadepth/Aerial_lifting_early/dji/process_lidar_mesh_szq/raw_pics/ed/pupper/images/survey/677d82bfba32563cacd5d2c4027148199a072eff.JPG,677d82bfba32563cacd5d2c4027148199a072eff.JPG,22.693944250,114.196703861,1,test
/home/data1/szq/Megadepth/Aerial_lifting_early/dji/process_lidar_mesh_szq/raw_pics/ed/pupper/images/survey/00e785f2d755164ed65fb64a7332c7275a06a3de.JPG,00e785f2d755164ed65fb64a7332c7275a06a3de.JPG,22.694816694,114.200032750,7,train
/home/data1/szq/Megadepth/Aerial_lifting_early/dji/process_lidar_mesh_szq/raw_pics/ed/pupper/images/survey/e901dd35cbac15889a994fef646cebe1cce17b29.JPG,e901dd35cbac15889a994fef646cebe1cce17b29.JPG,22.690145750,114.195152222,5,train
/home/data1/szq/Megadepth/Aerial_lifting_early/dji/process_lidar_mesh_szq/raw_pics/ed/pupper/images/survey/a03f6c9c18b8ee8d33850e63c80d0760b295c751.JPG,a03f6c9c18b8ee8d33850e63c80d0760b295c751.JPG,22.693746528,114.197164583,1,test
/home/data1/szq/Megadepth/Aerial_lifting_early/dji/process_lidar_mesh_szq/raw_pics/ed/pupper/images/survey/d4ea44305df6c82546ee0abc02d0883604b9892b.JPG,d4ea44305df6c82546ee0abc02d0883604b9892b.JPG,22.694070083,114.195577611,0,train
/home/data1/szq/Megadepth/Aerial_lifting_early/dji/process_lidar_mesh_szq/raw_pics/ed/pupper/images/survey/a1b2afa8c2896f9ab80548bb6777a9e0db5ea800.JPG,a1b2afa8c2896f9ab80548bb6777a9e0db5ea800.JPG,22.690111167,114.195565361,5,train
/home/data1/szq/Megadepth/Aerial_lifting_early/dji/process_lidar_mesh_szq/raw_pics/ed/pupper/images/survey/fe7ce50141d46e57ef190c1e83f4e1f3d8bc6eed.JPG,fe7ce50141d46e57ef190c1e83f4e1f3d8bc6eed.JPG,22.693892778,114.197556694,1,test
/home/data1/szq/Megadepth/Aerial_lifting_early/dji/process_lidar_mesh_szq/raw_pics/ed/pupper/images/survey/09a3acaaa694abb9aad4b61b56aceec8b6513513.JPG,09a3acaaa694abb9aad4b61b56aceec8b6513513.JPG,22.692917028,114.199438028,6,train
/home/data1/szq/Megadepth/Aerial_lifting_early/dji/process_lidar_mesh_szq/raw_pics/ed/pupper/images/survey/bcca769556b1a90628d38e313f2aa4436fda3612.JPG,bcca769556b1a90628d38e313f2aa4436fda3612.JPG,22.692695861,114.195683944,0,train
/home/data1/szq/Megadepth/Aerial_lifting_early/dji/process_lidar_mesh_szq/raw_pics/ed/pupper/images/survey/17b5be9e48b690381824945db7edbc7f57494ff9.JPG,17b5be9e48b690381824945db7edbc7f57494ff9.JPG,22.693687250,114.194680972,0,train
/home/data1/szq/Megadepth/Aerial_lifting_early/dji/process_lidar_mesh_szq/raw_pics/ed/pupper/images/survey/080e6ee16e748cfc3a43a200eeeb7643492045be.JPG,080e6ee16e748cfc3a43a200eeeb7643492045be.JPG,22.688290556,114.196153750,2,train
/home/data1/szq/Megadepth/Aerial_lifting_early/dji/process_lidar_mesh_szq/raw_pics/ed/pupper/images/survey/d8e847200d79620da298f96cc5ec255c75881eb7.JPG,d8e847200d79620da298f96cc5ec255c75881eb7.JPG,22.689916056,114.200207694,6,train
/home/data1/szq/Megadepth/Aerial_lifting_early/dji/process_lidar_mesh_szq/raw_pics/ed/pupper/images/survey/e3d61f3fc9f120797d79d307b5e897a27137303c.JPG,e3d61f3fc9f120797d79d307b5e897a27137303c.JPG,22.691560722,114.197935361,9,train
/home/data1/szq/Megadepth/Aerial_lifting_early/dji/process_lidar_mesh_szq/raw_pics/ed/pupper/images/survey/0d28fdc3a30b3abc73f1aadbc0b1b67d42895b2f.JPG,0d28fdc3a30b3abc73f1aadbc0b1b67d42895b2f.JPG,22.690904778,114.197874361,9,train
/home/data1/szq/Megadepth/Aerial_lifting_early/dji/process_lidar_mesh_szq/raw_pics/ed/pupper/images/survey/17b3d8d8a9b773ab28198737f032bb20dbd49b8c.JPG,17b3d8d8a9b773ab28198737f032bb20dbd49b8c.JPG,22.694155583,114.194535917,0,train
/home/data1/szq/Megadepth/Aerial_lifting_early/dji/process_lidar_mesh_szq/raw_pics/ed/pupper/images/survey/85a00a643b2432a4a68935c7a1d40d89c3561cbd.JPG,85a00a643b2432a4a68935c7a1d40d89c3561cbd.JPG,22.692721778,114.195393333,0,train
/home/data1/szq/Megadepth/Aerial_lifting_early/dji/process_lidar_mesh_szq/raw_pics/ed/pupper/images/survey/9d0b88c0bf82e50ff8b0d400525139934c55bad7.JPG,9d0b88c0bf82e50ff8b0d400525139934c55bad7.JPG,22.688072972,114.196273972,2,train
/home/data1/szq/Megadepth/Aerial_lifting_early/dji/process_lidar_mesh_szq/raw_pics/ed/pupper/images/survey/324e598cc7498f48bcf85a17bb7a0812d4acf345.JPG,324e598cc7498f48bcf85a17bb7a0812d4acf345.JPG,22.693789583,114.196982778,1,test
/home/data1/szq/Megadepth/Aerial_lifting_early/dji/process_lidar_mesh_szq/raw_pics/ed/pupper/images/survey/4ea7d8cca609fe056c7a407492fc35c90a0bbcf4.JPG,4ea7d8cca609fe056c7a407492fc35c90a0bbcf4.JPG,22.692386667,114.199073389,9,train
/home/data1/szq/Megadepth/Aerial_lifting_early/dji/process_lidar_mesh_szq/raw_pics/ed/pupper/images/survey/d0e2ee9182c7b9a5fcee90ad2414b762e53d0039.JPG,d0e2ee9182c7b9a5fcee90ad2414b762e53d0039.JPG,22.696430333,114.197121806,4,train
/home/data1/szq/Megadepth/Aerial_lifting_early/dji/process_lidar_mesh_szq/raw_pics/ed/pupper/images/survey/3945492f866040d9a7d23ab04f30065fccecc253.JPG,3945492f866040d9a7d23ab04f30065fccecc253.JPG,22.689738861,114.194605861,5,train
/home/data1/szq/Megadepth/Aerial_lifting_early/dji/process_lidar_mesh_szq/raw_pics/ed/pupper/images/survey/261379512b2e5c8df777678c03b4e477e6b7b18e.JPG,261379512b2e5c8df777678c03b4e477e6b7b18e.JPG,22.689613639,114.194284556,5,train
/home/data1/szq/Megadepth/Aerial_lifting_early/dji/process_lidar_mesh_szq/raw_pics/ed/pupper/images/survey/161b754b4f3bdc970acdbe2c7dcaeafe98cd960f.JPG,161b754b4f3bdc970acdbe2c7dcaeafe98cd960f.JPG,22.694183639,114.195837722,0,train
/home/data1/szq/Megadepth/Aerial_lifting_early/dji/process_lidar_mesh_szq/raw_pics/ed/pupper/images/survey/7ca4e2968afcd19569690b09b267e70609a3ce68.JPG,7ca4e2968afcd19569690b09b267e70609a3ce68.JPG,22.694640833,114.196899222,4,train
/home/data1/szq/Megadepth/Aerial_lifting_early/dji/process_lidar_mesh_szq/raw_pics/ed/pupper/images/survey/903b235e03b145a2d8c30b79e931d15b796321b6.JPG,903b235e03b145a2d8c30b79e931d15b796321b6.JPG,22.696099361,114.199798917,7,train
/home/data1/szq/Megadepth/Aerial_lifting_early/dji/process_lidar_mesh_szq/raw_pics/ed/pupper/images/survey/404e065aa078e30d04b5e5f9c42d839169b48dbe.JPG,404e065aa078e30d04b5e5f9c42d839169b48dbe.JPG,22.695248333,114.198912028,7,train
/home/data1/szq/Megadepth/Aerial_lifting_early/dji/process_lidar_mesh_szq/raw_pics/ed/pupper/images/survey/dc90bcb8b627e64a52c2c16de9c73485abed85c6.JPG,dc90bcb8b627e64a52c2c16de9c73485abed85c6.JPG,22.694460694,114.196477306,4,train
/home/data1/szq/Megadepth/Aerial_lifting_early/dji/process_lidar_mesh_szq/raw_pics/ed/pupper/images/survey/a318be66b37315e4fc96d179681814316983069a.JPG,a318be66b37315e4fc96d179681814316983069a.JPG,22.691532861,114.195614278,3,train
/home/data1/szq/Megadepth/Aerial_lifting_early/dji/process_lidar_mesh_szq/raw_pics/ed/pupper/images/survey/721f8740932a38c0300d048cc37aca17742b13eb.JPG,721f8740932a38c0300d048cc37aca17742b13eb.JPG,22.692642750,114.195562722,0,train
/home/data1/szq/Megadepth/Aerial_lifting_early/dji/process_lidar_mesh_szq/raw_pics/ed/pupper/images/survey/030bff8d23bf05b353ef8c8e5d52b6f6983e63fb.JPG,030bff8d23bf05b353ef8c8e5d52b6f6983e63fb.JPG,22.689370417,114.197173111,2,train
/home/data1/szq/Megadepth/Aerial_lifting_early/dji/process_lidar_mesh_szq/raw_pics/ed/pupper/images/survey/d344bf3041c402fc0a39768a3e7fcba04a7c0739.JPG,d344bf3041c402fc0a39768a3e7fcba04a7c0739.JPG,22.695200278,114.197337139,4,train
/home/data1/szq/Megadepth/Aerial_lifting_early/dji/process_lidar_mesh_szq/raw_pics/ed/pupper/images/survey/c657abc628f02ac1b2ac6b24671ce91883901fbd.JPG,c657abc628f02ac1b2ac6b24671ce91883901fbd.JPG,22.694491083,114.199162667,7,train
/home/data1/szq/Megadepth/Aerial_lifting_early/dji/process_lidar_mesh_szq/raw_pics/ed/pupper/images/survey/b7331c58a2b2b905c1a14cd901eed571bb43955b.JPG,b7331c58a2b2b905c1a14cd901eed571bb43955b.JPG,22.694482472,114.197976583,1,test
/home/data1/szq/Megadepth/Aerial_lifting_early/dji/process_lidar_mesh_szq/raw_pics/ed/pupper/images/survey/6c81b8b135133adbb0f35a7992e0a5dafcc468aa.JPG,6c81b8b135133adbb0f35a7992e0a5dafcc468aa.JPG,22.694992972,114.196778389,4,train
/home/data1/szq/Megadepth/Aerial_lifting_early/dji/process_lidar_mesh_szq/raw_pics/ed/pupper/images/survey/0e7ccd7c516050953b04ca44b849cc26cb06d56c.JPG,0e7ccd7c516050953b04ca44b849cc26cb06d56c.JPG,22.694955222,114.197769528,4,train
/home/data1/szq/Megadepth/Aerial_lifting_early/dji/process_lidar_mesh_szq/raw_pics/ed/pupper/images/survey/fbba9f945fa6b0687a4833e75ce07746cde9119f.JPG,fbba9f945fa6b0687a4833e75ce07746cde9119f.JPG,22.690876000,114.197507389,3,train
/home/data1/szq/Megadepth/Aerial_lifting_early/dji/process_lidar_mesh_szq/raw_pics/ed/pupper/images/survey/dbb772b2843c9ce2a75b3c38536dbd1618912692.JPG,dbb772b2843c9ce2a75b3c38536dbd1618912692.JPG,22.693558444,114.194833333,0,train
/home/data1/szq/Megadepth/Aerial_lifting_early/dji/process_lidar_mesh_szq/raw_pics/ed/pupper/images/survey/e959c85be37d46d83dbc8d0c24a79dba63f4c005.JPG,e959c85be37d46d83dbc8d0c24a79dba63f4c005.JPG,22.694375194,114.198156833,1,test
/home/data1/szq/Megadepth/Aerial_lifting_early/dji/process_lidar_mesh_szq/raw_pics/ed/pupper/images/survey/0c18b9e08682709dd8eb3d0d0dd834747de44781.JPG,0c18b9e08682709dd8eb3d0d0dd834747de44781.JPG,22.691072694,114.194443667,5,train
/home/data1/szq/Megadepth/Aerial_lifting_early/dji/process_lidar_mesh_szq/raw_pics/ed/pupper/images/survey/40ca6a5aeae49d982466c5fe99250ebd4d0379bf.JPG,40ca6a5aeae49d982466c5fe99250ebd4d0379bf.JPG,22.692479750,114.195179389,0,train
/home/data1/szq/Megadepth/Aerial_lifting_early/dji/process_lidar_mesh_szq/raw_pics/ed/pupper/images/survey/46bb5201d00617eb1e617630de1abde6ad105812.JPG,46bb5201d00617eb1e617630de1abde6ad105812.JPG,22.694210639,114.198115528,1,test
/home/data1/szq/Megadepth/Aerial_lifting_early/dji/process_lidar_mesh_szq/raw_pics/ed/pupper/images/survey/967757ca98927b69bb4e9bacf837053a4547e29d.JPG,967757ca98927b69bb4e9bacf837053a4547e29d.JPG,22.690824944,114.196506083,3,train
/home/data1/szq/Megadepth/Aerial_lifting_early/dji/process_lidar_mesh_szq/raw_pics/ed/pupper/images/survey/b5107284c9c84979cef76635efeb1b8ae54c98b6.JPG,b5107284c9c84979cef76635efeb1b8ae54c98b6.JPG,22.690403444,114.196591222,3,train
/home/data1/szq/Megadepth/Aerial_lifting_early/dji/process_lidar_mesh_szq/raw_pics/ed/pupper/images/survey/10af5f9fa9a4c07f574967465d6c01789bd10b02.JPG,10af5f9fa9a4c07f574967465d6c01789bd10b02.JPG,22.691930306,114.199161361,9,train
/home/data1/szq/Megadepth/Aerial_lifting_early/dji/process_lidar_mesh_szq/raw_pics/ed/pupper/images/survey/dfc2ce3bbfbddf224923e122470f2a9cc807e70e.JPG,dfc2ce3bbfbddf224923e122470f2a9cc807e70e.JPG,22.694408056,114.198936528,7,train
/home/data1/szq/Megadepth/Aerial_lifting_early/dji/process_lidar_mesh_szq/raw_pics/ed/pupper/images/survey/cbf7595b44741d535f4829d517d08d03f0e60c39.JPG,cbf7595b44741d535f4829d517d08d03f0e60c39.JPG,22.690280972,114.196755194,3,train
/home/data1/szq/Megadepth/Aerial_lifting_early/dji/process_lidar_mesh_szq/raw_pics/ed/pupper/images/survey/0f3fbcdc51dcfe234f307b35e44cdff74152ff94.JPG,0f3fbcdc51dcfe234f307b35e44cdff74152ff94.JPG,22.692923083,114.198656000,9,train
/home/data1/szq/Megadepth/Aerial_lifting_early/dji/process_lidar_mesh_szq/raw_pics/ed/pupper/images/survey/f105e13f1f1194f7f8c44aee9540b024745d452c.JPG,f105e13f1f1194f7f8c44aee9540b024745d452c.JPG,22.693370917,114.193949000,8,test
/home/data1/szq/Megadepth/Aerial_lifting_early/dji/process_lidar_mesh_szq/raw_pics/ed/pupper/images/survey/7a1e0514ffc930b16c6e8a4b9d70aecc6a95d44e.JPG,7a1e0514ffc930b16c6e8a4b9d70aecc6a95d44e.JPG,22.690357528,114.198487028,9,train
/home/data1/szq/Megadepth/Aerial_lifting_early/dji/process_lidar_mesh_szq/raw_pics/ed/pupper/images/survey/c24ca9dd1ac3ecf08fe3960fb6d231b15c4c7722.JPG,c24ca9dd1ac3ecf08fe3960fb6d231b15c4c7722.JPG,22.695035417,114.196893056,4,train
/home/data1/szq/Megadepth/Aerial_lifting_early/dji/process_lidar_mesh_szq/raw_pics/ed/pupper/images/survey/13ec31d1a333df2c65c82359fce7930d25fa5a11.JPG,13ec31d1a333df2c65c82359fce7930d25fa5a11.JPG,22.693208861,114.195718444,0,train
/home/data1/szq/Megadepth/Aerial_lifting_early/dji/process_lidar_mesh_szq/raw_pics/ed/pupper/images/survey/5b704f046d0577111cfc6b62d09d2aabcac713b9.JPG,5b704f046d0577111cfc6b62d09d2aabcac713b9.JPG,22.694054833,114.195533889,0,train
/home/data1/szq/Megadepth/Aerial_lifting_early/dji/process_lidar_mesh_szq/raw_pics/ed/pupper/images/survey/8733b45a0814c2d0a7421e9231b25fdaaf72fb99.JPG,8733b45a0814c2d0a7421e9231b25fdaaf72fb99.JPG,22.694899167,114.200342917,7,train
/home/data1/szq/Megadepth/Aerial_lifting_early/dji/process_lidar_mesh_szq/raw_pics/ed/pupper/images/survey/957232a85772dfaca86461a4ad11a47ee8e0dba2.JPG,957232a85772dfaca86461a4ad11a47ee8e0dba2.JPG,22.693051667,114.193200917,8,test
/home/data1/szq/Megadepth/Aerial_lifting_early/dji/process_lidar_mesh_szq/raw_pics/ed/pupper/images/survey/9575c2db94742eecd24d2e15fd6dae8a1a049f66.JPG,9575c2db94742eecd24d2e15fd6dae8a1a049f66.JPG,22.693724833,114.197102056,1,test
/home/data1/szq/Megadepth/Aerial_lifting_early/dji/process_lidar_mesh_szq/raw_pics/ed/pupper/images/survey/0a80497f9fc9611dcf3e3fcca6bbe509294cf12d.JPG,0a80497f9fc9611dcf3e3fcca6bbe509294cf12d.JPG,22.693197194,114.195128333,0,train
/home/data1/szq/Megadepth/Aerial_lifting_early/dji/process_lidar_mesh_szq/raw_pics/ed/pupper/images/survey/6010a19adb42464a2e931add17b9825b37a035fd.JPG,6010a19adb42464a2e931add17b9825b37a035fd.JPG,22.692214111,114.201208611,6,train
/home/data1/szq/Megadepth/Aerial_lifting_early/dji/process_lidar_mesh_szq/raw_pics/ed/pupper/images/survey/7c112c31fc956e8723099481cb861afe0598cc6f.JPG,7c112c31fc956e8723099481cb861afe0598cc6f.JPG,22.694812639,114.200020139,7,train
/home/data1/szq/Megadepth/Aerial_lifting_early/dji/process_lidar_mesh_szq/raw_pics/ed/pupper/images/survey/0db80b63864ae5067188bbf5e80f279fad0434d6.JPG,0db80b63864ae5067188bbf5e80f279fad0434d6.JPG,22.690864278,114.193904611,5,train
/home/data1/szq/Megadepth/Aerial_lifting_early/dji/process_lidar_mesh_szq/raw_pics/ed/pupper/images/survey/0643ad31b5ec4edca3ef77be6c6f05e9a2ce1b8f.JPG,0643ad31b5ec4edca3ef77be6c6f05e9a2ce1b8f.JPG,22.692585639,114.192118167,8,test
/home/data1/szq/Megadepth/Aerial_lifting_early/dji/process_lidar_mesh_szq/raw_pics/ed/pupper/images/survey/0c13f48c139650d50b85c5afe862ad4e778c908c.JPG,0c13f48c139650d50b85c5afe862ad4e778c908c.JPG,22.692973556,114.195242806,0,train
/home/data1/szq/Megadepth/Aerial_lifting_early/dji/process_lidar_mesh_szq/raw_pics/ed/pupper/images/survey/fd850c861175a368c55935ddd80647adb61b6cc9.JPG,fd850c861175a368c55935ddd80647adb61b6cc9.JPG,22.691429611,114.196019917,3,train
/home/data1/szq/Megadepth/Aerial_lifting_early/dji/process_lidar_mesh_szq/raw_pics/ed/pupper/images/survey/76187e14078763758c1edbe74f284ddb8e5886b0.JPG,76187e14078763758c1edbe74f284ddb8e5886b0.JPG,22.694469167,114.197980417,1,test
/home/data1/szq/Megadepth/Aerial_lifting_early/dji/process_lidar_mesh_szq/raw_pics/ed/pupper/images/survey/5423ed219e1cb8dbd946d2103821432ba7461c9a.JPG,5423ed219e1cb8dbd946d2103821432ba7461c9a.JPG,22.694738000,114.199824583,7,train
/home/data1/szq/Megadepth/Aerial_lifting_early/dji/process_lidar_mesh_szq/raw_pics/ed/pupper/images/survey/72324c7cfc69b3e585d76be4724efb7e52fa94af.JPG,72324c7cfc69b3e585d76be4724efb7e52fa94af.JPG,22.690657222,114.198349667,9,train
/home/data1/szq/Megadepth/Aerial_lifting_early/dji/process_lidar_mesh_szq/raw_pics/ed/pupper/images/survey/a6895fc7e02fc9e292efbaa025271510ff66add3.JPG,a6895fc7e02fc9e292efbaa025271510ff66add3.JPG,22.692557278,114.195361472,0,train
/home/data1/szq/Megadepth/Aerial_lifting_early/dji/process_lidar_mesh_szq/raw_pics/ed/pupper/images/survey/6a6fd444295898d44664082e89cdc61e1c6fb41b.JPG,6a6fd444295898d44664082e89cdc61e1c6fb41b.JPG,22.691880389,114.196782528,3,train
/home/data1/szq/Megadepth/Aerial_lifting_early/dji/process_lidar_mesh_szq/raw_pics/ed/pupper/images/survey/3aebf94f8c3394fb556392eed04a73707b4a0ebd.JPG,3aebf94f8c3394fb556392eed04a73707b4a0ebd.JPG,22.691277028,114.192376222,8,test
/home/data1/szq/Megadepth/Aerial_lifting_early/dji/process_lidar_mesh_szq/raw_pics/ed/pupper/images/survey/d4d4a5def5bb653b6da350e169a0162a9ac5735d.JPG,d4d4a5def5bb653b6da350e169a0162a9ac5735d.JPG,22.690462528,114.196109417,3,train
/home/data1/szq/Megadepth/Aerial_lifting_early/dji/process_lidar_mesh_szq/raw_pics/ed/pupper/images/survey/7b7cbf936cd7a35c4e571462895757fa77e1468a.JPG,7b7cbf936cd7a35c4e571462895757fa77e1468a.JPG,22.694728083,114.197867472,1,test
/home/data1/szq/Megadepth/Aerial_lifting_early/dji/process_lidar_mesh_szq/raw_pics/ed/pupper/images/survey/fafc0d84e7c776dc024f2f8a76edf0e2047d5c5e.JPG,fafc0d84e7c776dc024f2f8a76edf0e2047d5c5e.JPG,22.693394028,114.197305194,1,test
/home/data1/szq/Megadepth/Aerial_lifting_early/dji/process_lidar_mesh_szq/raw_pics/ed/pupper/images/survey/12d9a5cb4553ff527b806f6c44fe12a819f9cc2f.JPG,12d9a5cb4553ff527b806f6c44fe12a819f9cc2f.JPG,22.690951111,114.194126639,5,train
/home/data1/szq/Megadepth/Aerial_lifting_early/dji/process_lidar_mesh_szq/raw_pics/ed/pupper/images/survey/367a07197c3ff592702a14c8e900380a6f6e5fb1.JPG,367a07197c3ff592702a14c8e900380a6f6e5fb1.JPG,22.692051917,114.198350361,9,train
/home/data1/szq/Megadepth/Aerial_lifting_early/dji/process_lidar_mesh_szq/raw_pics/ed/pupper/images/survey/62a3ded89848f6a9b99166125ce9b17f8ad9f8c2.JPG,62a3ded89848f6a9b99166125ce9b17f8ad9f8c2.JPG,22.691311917,114.198048972,9,train
/home/data1/szq/Megadepth/Aerial_lifting_early/dji/process_lidar_mesh_szq/raw_pics/ed/pupper/images/survey/73caba45e4045a3c54be2a7c7d159da31a427e2d.JPG,73caba45e4045a3c54be2a7c7d159da31a427e2d.JPG,22.691829722,114.193668889,8,test
/home/data1/szq/Megadepth/Aerial_lifting_early/dji/process_lidar_mesh_szq/raw_pics/ed/pupper/images/survey/a2d69c625271294bd0ab0a045156efbac31c5605.JPG,a2d69c625271294bd0ab0a045156efbac31c5605.JPG,22.690513389,114.195133472,5,train
/home/data1/szq/Megadepth/Aerial_lifting_early/dji/process_lidar_mesh_szq/raw_pics/ed/pupper/images/survey/3397a145136aef0dbedfc94d8d188a6836909658.JPG,3397a145136aef0dbedfc94d8d188a6836909658.JPG,22.695572000,114.195991972,4,train
/home/data1/szq/Megadepth/Aerial_lifting_early/dji/process_lidar_mesh_szq/raw_pics/ed/pupper/images/survey/121a8219db3fef087bb9167e527f8dd14a4628b2.JPG,121a8219db3fef087bb9167e527f8dd14a4628b2.JPG,22.692991139,114.197121667,1,test
/home/data1/szq/Megadepth/Aerial_lifting_early/dji/process_lidar_mesh_szq/raw_pics/ed/pupper/images/survey/9784da3099dbcb8ce879a3125e17ff679629e315.JPG,9784da3099dbcb8ce879a3125e17ff679629e315.JPG,22.692469861,114.198859472,9,train
/home/data1/szq/Megadepth/Aerial_lifting_early/dji/process_lidar_mesh_szq/raw_pics/ed/pupper/images/survey/b333604a16c8d9236f64ff84835e0202db7cca70.JPG,b333604a16c8d9236f64ff84835e0202db7cca70.JPG,22.691076833,114.198308667,9,train
/home/data1/szq/Megadepth/Aerial_lifting_early/dji/process_lidar_mesh_szq/raw_pics/ed/pupper/images/survey/09e73f29222ec1551f9620160361ea655436e7bf.JPG,09e73f29222ec1551f9620160361ea655436e7bf.JPG,22.693707111,114.194869833,0,train
/home/data1/szq/Megadepth/Aerial_lifting_early/dji/process_lidar_mesh_szq/raw_pics/ed/pupper/images/survey/ce9d9fece3fdb6ca1c5b7ffacb40619baa220fec.JPG,ce9d9fece3fdb6ca1c5b7ffacb40619baa220fec.JPG,22.692053278,114.197706083,9,train
/home/data1/szq/Megadepth/Aerial_lifting_early/dji/process_lidar_mesh_szq/raw_pics/ed/pupper/images/survey/097317e9c0be068d71c69e095eb59c35b3b5d36e.JPG,097317e9c0be068d71c69e095eb59c35b3b5d36e.JPG,22.691029889,114.198194806,9,train
/home/data1/szq/Megadepth/Aerial_lifting_early/dji/process_lidar_mesh_szq/raw_pics/ed/pupper/images/survey/5b0adbe102a472715ae4e61669a0f98138f5ad3c.JPG,5b0adbe102a472715ae4e61669a0f98138f5ad3c.JPG,22.690749639,114.197471472,3,train
/home/data1/szq/Megadepth/Aerial_lifting_early/dji/process_lidar_mesh_szq/raw_pics/ed/pupper/images/survey/a51b5fd3c9aa501365fd8bd2111a605d88123a84.JPG,a51b5fd3c9aa501365fd8bd2111a605d88123a84.JPG,22.691373500,114.194509806,5,train
/home/data1/szq/Megadepth/Aerial_lifting_early/dji/process_lidar_mesh_szq/raw_pics/ed/pupper/images/survey/94e745e180c5dd2e7b0331e7636e7e48e118b401.JPG,94e745e180c5dd2e7b0331e7636e7e48e118b401.JPG,22.692974972,114.196398417,0,train
/home/data1/szq/Megadepth/Aerial_lifting_early/dji/process_lidar_mesh_szq/raw_pics/ed/pupper/images/survey/d1aa9a70c0641424a386bf28a6418c97306fb894.JPG,d1aa9a70c0641424a386bf28a6418c97306fb894.JPG,22.693438111,114.195008639,0,train
/home/data1/szq/Megadepth/Aerial_lifting_early/dji/process_lidar_mesh_szq/raw_pics/ed/pupper/images/survey/62bbd5c7dd8135ee2d4d2e4f81211fb871bbbeb4.JPG,62bbd5c7dd8135ee2d4d2e4f81211fb871bbbeb4.JPG,22.690165639,114.195704111,5,train
/home/data1/szq/Megadepth/Aerial_lifting_early/dji/process_lidar_mesh_szq/raw_pics/ed/pupper/images/survey/cda5559d481606808bf746cec6d99b30122f11df.JPG,cda5559d481606808bf746cec6d99b30122f11df.JPG,22.692101111,114.194300278,8,test
/home/data1/szq/Megadepth/Aerial_lifting_early/dji/process_lidar_mesh_szq/raw_pics/ed/pupper/images/survey/8ef7d4236b150895e1280e0ff662e17d4c280612.JPG,8ef7d4236b150895e1280e0ff662e17d4c280612.JPG,22.693938861,114.196705250,1,test
/home/data1/szq/Megadepth/Aerial_lifting_early/dji/process_lidar_mesh_szq/raw_pics/ed/pupper/images/survey/568e938ed64a9b97dba465548a859150e0367044.JPG,568e938ed64a9b97dba465548a859150e0367044.JPG,22.691215611,114.198384083,9,train
/home/data1/szq/Megadepth/Aerial_lifting_early/dji/process_lidar_mesh_szq/raw_pics/ed/pupper/images/survey/6efc9a8b0e9fce4ba53d348bd0c24d8f008c390d.JPG,6efc9a8b0e9fce4ba53d348bd0c24d8f008c390d.JPG,22.695441111,114.193995722,0,train
/home/data1/szq/Megadepth/Aerial_lifting_early/dji/process_lidar_mesh_szq/raw_pics/ed/pupper/images/survey/afa1d7107cb1f98bdb5b1f6d73b07692f295f92a.JPG,afa1d7107cb1f98bdb5b1f6d73b07692f295f92a.JPG,22.692032528,114.200385583,6,train
/home/data1/szq/Megadepth/Aerial_lifting_early/dji/process_lidar_mesh_szq/raw_pics/ed/pupper/images/survey/ace9bc3635c9a516b64a3734fb92dcef10180d5d.JPG,ace9bc3635c9a516b64a3734fb92dcef10180d5d.JPG,22.692484000,114.194910389,0,train
/home/data1/szq/Megadepth/Aerial_lifting_early/dji/process_lidar_mesh_szq/raw_pics/ed/pupper/images/survey/146ae4639b0724ddc2fbfee49644d80a70806860.JPG,146ae4639b0724ddc2fbfee49644d80a70806860.JPG,22.688974083,114.197356417,2,train
/home/data1/szq/Megadepth/Aerial_lifting_early/dji/process_lidar_mesh_szq/raw_pics/ed/pupper/images/survey/69080944a100779255652ff2fb2715588c5eba09.JPG,69080944a100779255652ff2fb2715588c5eba09.JPG,22.690673583,114.197003167,3,train
/home/data1/szq/Megadepth/Aerial_lifting_early/dji/process_lidar_mesh_szq/raw_pics/ed/pupper/images/survey/b7c90d7a212500c75708135bf3b3fd56e86b3831.JPG,b7c90d7a212500c75708135bf3b3fd56e86b3831.JPG,22.691898333,114.197049472,3,train
/home/data1/szq/Megadepth/Aerial_lifting_early/dji/process_lidar_mesh_szq/raw_pics/ed/pupper/images/survey/794e6eabb5f6c36deac82850822a94b4d1241cff.JPG,794e6eabb5f6c36deac82850822a94b4d1241cff.JPG,22.693934083,114.197667750,1,test
/home/data1/szq/Megadepth/Aerial_lifting_early/dji/process_lidar_mesh_szq/raw_pics/ed/pupper/images/survey/4e940ee9b7f826af9ff598694a333c74bf8fdd07.JPG,4e940ee9b7f826af9ff598694a333c74bf8fdd07.JPG,22.690751139,114.195023639,5,train
/home/data1/szq/Megadepth/Aerial_lifting_early/dji/process_lidar_mesh_szq/raw_pics/ed/pupper/images/survey/5d1f47793c4143bb73654364dfae4c0d044dbaa1.JPG,5d1f47793c4143bb73654364dfae4c0d044dbaa1.JPG,22.693603250,114.194487333,0,train
/home/data1/szq/Megadepth/Aerial_lifting_early/dji/process_lidar_mesh_szq/raw_pics/ed/pupper/images/survey/d61955038f710135fe5ba1861c8edc39e384d96b.JPG,d61955038f710135fe5ba1861c8edc39e384d96b.JPG,22.690958528,114.196402556,3,train
/home/data1/szq/Megadepth/Aerial_lifting_early/dji/process_lidar_mesh_szq/raw_pics/ed/pupper/images/survey/4eac52e9c30d819d28dea93932a3191623a124eb.JPG,4eac52e9c30d819d28dea93932a3191623a124eb.JPG,22.691744944,114.196438444,3,train
/home/data1/szq/Megadepth/Aerial_lifting_early/dji/process_lidar_mesh_szq/raw_pics/ed/pupper/images/survey/80bd37a33a271f9c2d3e90e9826b916f4b59abec.JPG,80bd37a33a271f9c2d3e90e9826b916f4b59abec.JPG,22.690553611,114.196717361,3,train
/home/data1/szq/Megadepth/Aerial_lifting_early/dji/process_lidar_mesh_szq/raw_pics/ed/pupper/images/survey/35242f7c55569a74aa28206dc49942648d83a45d.JPG,35242f7c55569a74aa28206dc49942648d83a45d.JPG,22.694004972,114.195421056,0,train
/home/data1/szq/Megadepth/Aerial_lifting_early/dji/process_lidar_mesh_szq/raw_pics/ed/pupper/images/survey/2399f0433535e3b0c736d8ae818a85ca84072e35.JPG,2399f0433535e3b0c736d8ae818a85ca84072e35.JPG,22.695110361,114.197096389,4,train
/home/data1/szq/Megadepth/Aerial_lifting_early/dji/process_lidar_mesh_szq/raw_pics/ed/pupper/images/survey/84f65150e1dd72a99420fa7eacebb626c1610028.JPG,84f65150e1dd72a99420fa7eacebb626c1610028.JPG,22.689795389,114.194744083,5,train
/home/data1/szq/Megadepth/Aerial_lifting_early/dji/process_lidar_mesh_szq/raw_pics/ed/pupper/images/survey/972019fe0392ed18f05f39b9eb83ecdf28fbf057.JPG,972019fe0392ed18f05f39b9eb83ecdf28fbf057.JPG,22.692932694,114.197305056,1,test
/home/data1/szq/Megadepth/Aerial_lifting_early/dji/process_lidar_mesh_szq/raw_pics/ed/pupper/images/survey/3861d2386d6da8995212baa26abfc84a0297e0a8.JPG,3861d2386d6da8995212baa26abfc84a0297e0a8.JPG,22.692366250,114.197750778,9,train
/home/data1/szq/Megadepth/Aerial_lifting_early/dji/process_lidar_mesh_szq/raw_pics/ed/pupper/images/survey/a32148cdc7a33102a9e05e93b5b2639c3c593776.JPG,a32148cdc7a33102a9e05e93b5b2639c3c593776.JPG,22.691494917,114.195524389,3,train
/home/data1/szq/Megadepth/Aerial_lifting_early/dji/process_lidar_mesh_szq/raw_pics/ed/pupper/images/survey/a32165d3b94046d5d97f1cfc55488564c211d955.JPG,a32165d3b94046d5d97f1cfc55488564c211d955.JPG,22.691625222,114.199711028,6,train
/home/data1/szq/Megadepth/Aerial_lifting_early/dji/process_lidar_mesh_szq/raw_pics/ed/pupper/images/survey/e4654b5cfa66a0788e1f2024af4c0835baab27bd.JPG,e4654b5cfa66a0788e1f2024af4c0835baab27bd.JPG,22.695651028,114.199995611,7,train
/home/data1/szq/Megadepth/Aerial_lifting_early/dji/process_lidar_mesh_szq/raw_pics/ed/pupper/images/survey/9956ad0bf9e11e996a1ff69fb62dc273288022ce.JPG,9956ad0bf9e11e996a1ff69fb62dc273288022ce.JPG,22.691426139,114.199211028,9,train
/home/data1/szq/Megadepth/Aerial_lifting_early/dji/process_lidar_mesh_szq/raw_pics/ed/pupper/images/survey/5bffe6d8dfdd8ee239466bed4b21346d0cd71934.JPG,5bffe6d8dfdd8ee239466bed4b21346d0cd71934.JPG,22.692933861,114.196237333,0,train
/home/data1/szq/Megadepth/Aerial_lifting_early/dji/process_lidar_mesh_szq/raw_pics/ed/pupper/images/survey/f66d274c9973cb6acfff76a0f5b5029a0814ee55.JPG,f66d274c9973cb6acfff76a0f5b5029a0814ee55.JPG,22.689765306,114.198760917,2,train
/home/data1/szq/Megadepth/Aerial_lifting_early/dji/process_lidar_mesh_szq/raw_pics/ed/pupper/images/survey/5faf9c4b76782c3d1a755c7af5d394e627722cd3.JPG,5faf9c4b76782c3d1a755c7af5d394e627722cd3.JPG,22.693711917,114.196820222,1,test
/home/data1/szq/Megadepth/Aerial_lifting_early/dji/process_lidar_mesh_szq/raw_pics/ed/pupper/images/survey/56590a262ef7dbb16fd9ea4c4036c0d9acd311a3.JPG,56590a262ef7dbb16fd9ea4c4036c0d9acd311a3.JPG,22.694497944,114.199261500,7,train
/home/data1/szq/Megadepth/Aerial_lifting_early/dji/process_lidar_mesh_szq/raw_pics/ed/pupper/images/survey/f8988fd71ecfa82a23d122a34be15a1e8c09a19d.JPG,f8988fd71ecfa82a23d122a34be15a1e8c09a19d.JPG,22.692556417,114.193913917,8,test
/home/data1/szq/Megadepth/Aerial_lifting_early/dji/process_lidar_mesh_szq/raw_pics/ed/pupper/images/survey/5876a6a8abf8c9121fc1846ab2bdf88cf768bdb5.JPG,5876a6a8abf8c9121fc1846ab2bdf88cf768bdb5.JPG,22.691159222,114.198310833,9,train
/home/data1/szq/Megadepth/Aerial_lifting_early/dji/process_lidar_mesh_szq/raw_pics/ed/pupper/images/survey/a3984bceb05bff34f60134db18263cf368768bbb.JPG,a3984bceb05bff34f60134db18263cf368768bbb.JPG,22.691527639,114.195597028,3,train
/home/data1/szq/Megadepth/Aerial_lifting_early/dji/process_lidar_mesh_szq/raw_pics/ed/pupper/images/survey/c5b03183ab879f1bace49267c3bb789b390d70d0.JPG,c5b03183ab879f1bace49267c3bb789b390d70d0.JPG,22.693002000,114.199659778,6,train
/home/data1/szq/Megadepth/Aerial_lifting_early/dji/process_lidar_mesh_szq/raw_pics/ed/pupper/images/survey/1e22b5ce1e97499938fbf7825cdd140b4277c459.JPG,1e22b5ce1e97499938fbf7825cdd140b4277c459.JPG,22.689169806,114.199034250,2,train
/home/data1/szq/Megadepth/Aerial_lifting_early/dji/process_lidar_mesh_szq/raw_pics/ed/pupper/images/survey/aaf0fe80c5eb4f79806956af76ee418d6a6023f6.JPG,aaf0fe80c5eb4f79806956af76ee418d6a6023f6.JPG,22.695700028,114.198716639,7,train
/home/data1/szq/Megadepth/Aerial_lifting_early/dji/process_lidar_mesh_szq/raw_pics/ed/pupper/images/survey/d8b9f114aed6c802c462f834692c40cfb23b324d.JPG,d8b9f114aed6c802c462f834692c40cfb23b324d.JPG,22.692273583,114.201365417,6,train
/home/data1/szq/Megadepth/Aerial_lifting_early/dji/process_lidar_mesh_szq/raw_pics/ed/pupper/images/survey/397e66ec9c54e939d81a09c96fa1c984861dfde6.JPG,397e66ec9c54e939d81a09c96fa1c984861dfde6.JPG,22.691533694,114.195619222,3,train
/home/data1/szq/Megadepth/Aerial_lifting_early/dji/process_lidar_mesh_szq/raw_pics/ed/pupper/images/survey/3591c148034b8c7a2338f2d0489487c37d16a7e8.JPG,3591c148034b8c7a2338f2d0489487c37d16a7e8.JPG,22.690677222,114.196195583,3,train
/home/data1/szq/Megadepth/Aerial_lifting_early/dji/process_lidar_mesh_szq/raw_pics/ed/pupper/images/survey/6597e475cee6eaf82da7f23bce19fc235ec877aa.JPG,6597e475cee6eaf82da7f23bce19fc235ec877aa.JPG,22.689900639,114.195415000,5,train
/home/data1/szq/Megadepth/Aerial_lifting_early/dji/process_lidar_mesh_szq/raw_pics/ed/pupper/images/survey/86ac7885814d38985fc255a8c2115a58c16acd14.JPG,86ac7885814d38985fc255a8c2115a58c16acd14.JPG,22.689286889,114.199480750,2,train
/home/data1/szq/Megadepth/Aerial_lifting_early/dji/process_lidar_mesh_szq/raw_pics/ed/pupper/images/survey/3b061777ef0dfa2ccc2562c9ba316227bb9205c3.JPG,3b061777ef0dfa2ccc2562c9ba316227bb9205c3.JPG,22.695542417,114.197507778,4,train
/home/data1/szq/Megadepth/Aerial_lifting_early/dji/process_lidar_mesh_szq/raw_pics/ed/pupper/images/survey/c570613b846851b791e5fcd21c6cc4c1d3eaef26.JPG,c570613b846851b791e5fcd21c6cc4c1d3eaef26.JPG,22.691219583,114.196187611,3,train
/home/data1/szq/Megadepth/Aerial_lifting_early/dji/process_lidar_mesh_szq/raw_pics/ed/pupper/images/survey/6323ac91823e86793425fcd6c0679a6f0e9f677c.JPG,6323ac91823e86793425fcd6c0679a6f0e9f677c.JPG,22.694666972,114.195902000,4,train
/home/data1/szq/Megadepth/Aerial_lifting_early/dji/process_lidar_mesh_szq/raw_pics/ed/pupper/images/survey/849619b7a6fb14d79acbbe691284e7130d1808e0.JPG,849619b7a6fb14d79acbbe691284e7130d1808e0.JPG,22.692469639,114.201455056,6,train
/home/data1/szq/Megadepth/Aerial_lifting_early/dji/process_lidar_mesh_szq/raw_pics/ed/pupper/images/survey/6d3cdb3d6f09b99634c66096a3f2b6f9ef859ef1.JPG,6d3cdb3d6f09b99634c66096a3f2b6f9ef859ef1.JPG,22.690124611,114.195142722,5,train
/home/data1/szq/Megadepth/Aerial_lifting_early/dji/process_lidar_mesh_szq/raw_pics/ed/pupper/images/survey/4e81ba195e2463349821fbb82146920c86a83782.JPG,4e81ba195e2463349821fbb82146920c86a83782.JPG,22.695919000,114.199261944,7,train
/home/data1/szq/Megadepth/Aerial_lifting_early/dji/process_lidar_mesh_szq/raw_pics/ed/pupper/images/survey/5834d7e9935ff9846351d189f6c282f885fb7bf6.JPG,5834d7e9935ff9846351d189f6c282f885fb7bf6.JPG,22.692542806,114.198479111,9,train
/home/data1/szq/Megadepth/Aerial_lifting_early/dji/process_lidar_mesh_szq/raw_pics/ed/pupper/images/survey/62d59dd5258bb3d0bffdafbae44a118d7be95d21.JPG,62d59dd5258bb3d0bffdafbae44a118d7be95d21.JPG,22.694853139,114.197825306,1,test
/home/data1/szq/Megadepth/Aerial_lifting_early/dji/process_lidar_mesh_szq/raw_pics/ed/pupper/images/survey/5f439bc30629e9783f859edfe5b29b9b21b2fd13.JPG,5f439bc30629e9783f859edfe5b29b9b21b2fd13.JPG,22.690327389,114.196397222,3,train
/home/data1/szq/Megadepth/Aerial_lifting_early/dji/process_lidar_mesh_szq/raw_pics/ed/pupper/images/survey/e9da275bd29c0a5fd3d9a31dbacf251b2438139d.JPG,e9da275bd29c0a5fd3d9a31dbacf251b2438139d.JPG,22.692729778,114.195382194,0,train
/home/data1/szq/Megadepth/Aerial_lifting_early/dji/process_lidar_mesh_szq/raw_pics/ed/pupper/images/survey/ab44504e2d82c8dbe97aab7a97bf6ab571a678af.JPG,ab44504e2d82c8dbe97aab7a97bf6ab571a678af.JPG,22.693281389,114.196994083,1,test
/home/data1/szq/Megadepth/Aerial_lifting_early/dji/process_lidar_mesh_szq/raw_pics/ed/pupper/images/survey/6e64e21b27e7c071f7ae2be37a205c9d04eaab1a.JPG,6e64e21b27e7c071f7ae2be37a205c9d04eaab1a.JPG,22.692914333,114.194930750,0,train
/home/data1/szq/Megadepth/Aerial_lifting_early/dji/process_lidar_mesh_szq/raw_pics/ed/pupper/images/survey/e5b8f32adf01f1d8723976e0a5df89da313f5ccf.JPG,e5b8f32adf01f1d8723976e0a5df89da313f5ccf.JPG,22.695866972,114.195863306,4,train
/home/data1/szq/Megadepth/Aerial_lifting_early/dji/process_lidar_mesh_szq/raw_pics/ed/pupper/images/survey/ca6ec5a5f636f09bce39248d2bac5cf1094c52fe.JPG,ca6ec5a5f636f09bce39248d2bac5cf1094c52fe.JPG,22.694209750,114.198130222,1,test
/home/data1/szq/Megadepth/Aerial_lifting_early/dji/process_lidar_mesh_szq/raw_pics/ed/pupper/images/survey/3624555615450ff8734bbebcec8a4af47ff35b10.JPG,3624555615450ff8734bbebcec8a4af47ff35b10.JPG,22.688722722,114.197507722,2,train
/home/data1/szq/Megadepth/Aerial_lifting_early/dji/process_lidar_mesh_szq/raw_pics/ed/pupper/images/survey/e790bc592d8c4a2a82a2dcfc41a8ef87871d9e30.JPG,e790bc592d8c4a2a82a2dcfc41a8ef87871d9e30.JPG,22.691661306,114.195945278,3,train
/home/data1/szq/Megadepth/Aerial_lifting_early/dji/process_lidar_mesh_szq/raw_pics/ed/pupper/images/survey/8b1dc58050668a43217caeed9f055763a76e9417.JPG,8b1dc58050668a43217caeed9f055763a76e9417.JPG,22.694140833,114.195740194,0,train
/home/data1/szq/Megadepth/Aerial_lifting_early/dji/process_lidar_mesh_szq/raw_pics/ed/pupper/images/survey/2feea039a5dc7aed9a62c7dbb743ae4c7526f22e.JPG,2feea039a5dc7aed9a62c7dbb743ae4c7526f22e.JPG,22.691648028,114.199447361,6,train
/home/data1/szq/Megadepth/Aerial_lifting_early/dji/process_lidar_mesh_szq/raw_pics/ed/pupper/images/survey/043406489d85311a973bc701c222cdb1ea00b568.JPG,043406489d85311a973bc701c222cdb1ea00b568.JPG,22.695298917,114.197634917,4,train
/home/data1/szq/Megadepth/Aerial_lifting_early/dji/process_lidar_mesh_szq/raw_pics/ed/pupper/images/survey/3bfb55511af33c97352cfdab07b09ca2472dfa1b.JPG,3bfb55511af33c97352cfdab07b09ca2472dfa1b.JPG,22.694476111,114.196472139,4,train
/home/data1/szq/Megadepth/Aerial_lifting_early/dji/process_lidar_mesh_szq/raw_pics/ed/pupper/images/survey/2dae5a0c8582a453e5a6cf06c174a42fc93ee87e.JPG,2dae5a0c8582a453e5a6cf06c174a42fc93ee87e.JPG,22.690199583,114.195277583,5,train
/home/data1/szq/Megadepth/Aerial_lifting_early/dji/process_lidar_mesh_szq/raw_pics/ed/pupper/images/survey/1959a45a08571b2a79ff8b9aecdf1c0eb394032a.JPG,1959a45a08571b2a79ff8b9aecdf1c0eb394032a.JPG,22.694380944,114.196512889,4,train
/home/data1/szq/Megadepth/Aerial_lifting_early/dji/process_lidar_mesh_szq/raw_pics/ed/pupper/images/survey/8b566f9b6970960ad08abed0db69ec2403e73255.JPG,8b566f9b6970960ad08abed0db69ec2403e73255.JPG,22.692375778,114.197775667,9,train
/home/data1/szq/Megadepth/Aerial_lifting_early/dji/process_lidar_mesh_szq/raw_pics/ed/pupper/images/survey/63c09f7d667eb55d052726d0c1f628a584648e08.JPG,63c09f7d667eb55d052726d0c1f628a584648e08.JPG,22.691455028,114.199275694,6,train
/home/data1/szq/Megadepth/Aerial_lifting_early/dji/process_lidar_mesh_szq/raw_pics/ed/pupper/images/survey/b7b1eeb8b05f1b5c7c2efae9c78a07f00bab6454.JPG,b7b1eeb8b05f1b5c7c2efae9c78a07f00bab6454.JPG,22.688620083,114.197300417,2,train
/home/data1/szq/Megadepth/Aerial_lifting_early/dji/process_lidar_mesh_szq/raw_pics/ed/pupper/images/survey/bf8277cf548ad0e6612fc924b40619d23cfa3665.JPG,bf8277cf548ad0e6612fc924b40619d23cfa3665.JPG,22.690823083,114.193799278,5,train
/home/data1/szq/Megadepth/Aerial_lifting_early/dji/process_lidar_mesh_szq/raw_pics/ed/pupper/images/survey/dee5c5c353a9fed503e7d59e6ffed568030692f5.JPG,dee5c5c353a9fed503e7d59e6ffed568030692f5.JPG,22.691791833,114.200131917,6,train
/home/data1/szq/Megadepth/Aerial_lifting_early/dji/process_lidar_mesh_szq/raw_pics/ed/pupper/images/survey/66f0d3aeafa969c391c27897dd17e88d6e154703.JPG,66f0d3aeafa969c391c27897dd17e88d6e154703.JPG,22.692057833,114.196951250,3,train
/home/data1/szq/Megadepth/Aerial_lifting_early/dji/process_lidar_mesh_szq/raw_pics/ed/pupper/images/survey/d43f488dc83f5fe16329eb8ceec5904405b9ed9b.JPG,d43f488dc83f5fe16329eb8ceec5904405b9ed9b.JPG,22.689678083,114.197031944,2,train
/home/data1/szq/Megadepth/Aerial_lifting_early/dji/process_lidar_mesh_szq/raw_pics/ed/pupper/images/survey/feed32f839c9fe860e61bbdaf43094df1b98bd43.JPG,feed32f839c9fe860e61bbdaf43094df1b98bd43.JPG,22.691468694,114.199353278,6,train
/home/data1/szq/Megadepth/Aerial_lifting_early/dji/process_lidar_mesh_szq/raw_pics/ed/pupper/images/survey/5d96031cfb2550a4d4602b81faa493e89cc8275f.JPG,5d96031cfb2550a4d4602b81faa493e89cc8275f.JPG,22.695312694,114.197639833,4,train
/home/data1/szq/Megadepth/Aerial_lifting_early/dji/process_lidar_mesh_szq/raw_pics/ed/pupper/images/survey/1044c949558e6f6a23d085037699d6960932fd55.JPG,1044c949558e6f6a23d085037699d6960932fd55.JPG,22.693858944,114.197253028,1,test
/home/data1/szq/Megadepth/Aerial_lifting_early/dji/process_lidar_mesh_szq/raw_pics/ed/pupper/images/survey/460660e0a38067237eafcd61348a15bd3c925926.JPG,460660e0a38067237eafcd61348a15bd3c925926.JPG,22.694208944,114.198121611,1,test
/home/data1/szq/Megadepth/Aerial_lifting_early/dji/process_lidar_mesh_szq/raw_pics/ed/pupper/images/survey/81d69ad6c3a866cd5223caa7740425b73df620d0.JPG,81d69ad6c3a866cd5223caa7740425b73df620d0.JPG,22.693510111,114.200983139,6,train
/home/data1/szq/Megadepth/Aerial_lifting_early/dji/process_lidar_mesh_szq/raw_pics/ed/pupper/images/survey/8698ebc2927590fa3dcf07869469db26ef54e5b0.JPG,8698ebc2927590fa3dcf07869469db26ef54e5b0.JPG,22.692378444,114.198058750,9,train
/home/data1/szq/Megadepth/Aerial_lifting_early/dji/process_lidar_mesh_szq/raw_pics/ed/pupper/images/survey/13252b95d1d450e4ee5ab00bfc4dbccc5ccf97af.JPG,13252b95d1d450e4ee5ab00bfc4dbccc5ccf97af.JPG,22.692504083,114.198380222,9,train
/home/data1/szq/Megadepth/Aerial_lifting_early/dji/process_lidar_mesh_szq/raw_pics/ed/pupper/images/survey/f50b46c6c6e641cb21717a6a715a79d78208ade9.JPG,f50b46c6c6e641cb21717a6a715a79d78208ade9.JPG,22.692393333,114.197384250,9,train
/home/data1/szq/Megadepth/Aerial_lifting_early/dji/process_lidar_mesh_szq/raw_pics/ed/pupper/images/survey/940274523732300c27b7322cefaea7cb2fd71892.JPG,940274523732300c27b7322cefaea7cb2fd71892.JPG,22.692579056,114.195700000,0,train
/home/data1/szq/Megadepth/Aerial_lifting_early/dji/process_lidar_mesh_szq/raw_pics/ed/pupper/images/survey/a4e71ab664d74a2deda35a562daa8cbc50773ff0.JPG,a4e71ab664d74a2deda35a562daa8cbc50773ff0.JPG,22.692331639,114.194837000,0,train
/home/data1/szq/Megadepth/Aerial_lifting_early/dji/process_lidar_mesh_szq/raw_pics/ed/pupper/images/survey/8a8ebb3138314474ba3a4278d6cb6cf74d8f34cf.JPG,8a8ebb3138314474ba3a4278d6cb6cf74d8f34cf.JPG,22.691618528,114.195873889,3,train
/home/data1/szq/Megadepth/Aerial_lifting_early/dji/process_lidar_mesh_szq/raw_pics/ed/pupper/images/survey/49b3ed7cba9f2546ab43f4258b2eaeca6fecdf8d.JPG,49b3ed7cba9f2546ab43f4258b2eaeca6fecdf8d.JPG,22.693569361,114.196691167,1,test
/home/data1/szq/Megadepth/Aerial_lifting_early/dji/process_lidar_mesh_szq/raw_pics/ed/pupper/images/survey/1b919ddac988cb342b8535ae4d4c5ad683827576.JPG,1b919ddac988cb342b8535ae4d4c5ad683827576.JPG,22.689661417,114.200361806,6,train
/home/data1/szq/Megadepth/Aerial_lifting_early/dji/process_lidar_mesh_szq/raw_pics/ed/pupper/images/survey/092b756744f956ac8e4a51f4b18688d2f8554c4e.JPG,092b756744f956ac8e4a51f4b18688d2f8554c4e.JPG,22.692167250,114.194110694,8,test
/home/data1/szq/Megadepth/Aerial_lifting_early/dji/process_lidar_mesh_szq/raw_pics/ed/pupper/images/survey/254fc0d60e14b735e3b7324db592d94b3892d4b2.JPG,254fc0d60e14b735e3b7324db592d94b3892d4b2.JPG,22.694869111,114.196447944,4,train
/home/data1/szq/Megadepth/Aerial_lifting_early/dji/process_lidar_mesh_szq/raw_pics/ed/pupper/images/survey/479192ce0e68d30b7ad4d7b7162af8bc56b58891.JPG,479192ce0e68d30b7ad4d7b7162af8bc56b58891.JPG,22.691895833,114.194497361,8,test
/home/data1/szq/Megadepth/Aerial_lifting_early/dji/process_lidar_mesh_szq/raw_pics/ed/pupper/images/survey/bdaa467c405e417040f8da4ea60cf46f7e8b43f2.JPG,bdaa467c405e417040f8da4ea60cf46f7e8b43f2.JPG,22.693097389,114.199893778,6,train
/home/data1/szq/Megadepth/Aerial_lifting_early/dji/process_lidar_mesh_szq/raw_pics/ed/pupper/images/survey/a2db8339335ce8099499ecd79ffd3909c70ba2a6.JPG,a2db8339335ce8099499ecd79ffd3909c70ba2a6.JPG,22.690320472,114.196375333,3,train
/home/data1/szq/Megadepth/Aerial_lifting_early/dji/process_lidar_mesh_szq/raw_pics/ed/pupper/images/survey/7920b856e0c98f6d3421d38347df919e6f6d87ce.JPG,7920b856e0c98f6d3421d38347df919e6f6d87ce.JPG,22.692238194,114.194072611,8,test
/home/data1/szq/Megadepth/Aerial_lifting_early/dji/process_lidar_mesh_szq/raw_pics/ed/pupper/images/survey/0bee75e0285d7f3279ea57c94139a234a4fdd1a0.JPG,0bee75e0285d7f3279ea57c94139a234a4fdd1a0.JPG,22.691682861,114.196111861,3,train
/home/data1/szq/Megadepth/Aerial_lifting_early/dji/process_lidar_mesh_szq/raw_pics/ed/pupper/images/survey/f35cf64efa256b41eb1d202af4ca81756390d6a6.JPG,f35cf64efa256b41eb1d202af4ca81756390d6a6.JPG,22.693141028,114.195156194,0,train
/home/data1/szq/Megadepth/Aerial_lifting_early/dji/process_lidar_mesh_szq/raw_pics/ed/pupper/images/survey/78065de7a11fb0b5d5d7af4133b7e1870a91068b.JPG,78065de7a11fb0b5d5d7af4133b7e1870a91068b.JPG,22.692254278,114.197740500,9,train
/home/data1/szq/Megadepth/Aerial_lifting_early/dji/process_lidar_mesh_szq/raw_pics/ed/pupper/images/survey/ae68ccc0e3c9e74fcb95f8bc46ee76cd06444737.JPG,ae68ccc0e3c9e74fcb95f8bc46ee76cd06444737.JPG,22.694006806,114.197865667,1,test
/home/data1/szq/Megadepth/Aerial_lifting_early/dji/process_lidar_mesh_szq/raw_pics/ed/pupper/images/survey/6074e4cfa3672a61a4e90cdf46d12fb65baf3e90.JPG,6074e4cfa3672a61a4e90cdf46d12fb65baf3e90.JPG,22.694527472,114.196635972,4,train
/home/data1/szq/Megadepth/Aerial_lifting_early/dji/process_lidar_mesh_szq/raw_pics/ed/pupper/images/survey/670b7a9a43651460efaba1a9566c3e324f27fe4a.JPG,670b7a9a43651460efaba1a9566c3e324f27fe4a.JPG,22.695320278,114.197656944,4,train
/home/data1/szq/Megadepth/Aerial_lifting_early/dji/process_lidar_mesh_szq/raw_pics/ed/pupper/images/survey/3530289016581c32677c312c280b4416be5a88d1.JPG,3530289016581c32677c312c280b4416be5a88d1.JPG,22.694645139,114.197904472,1,test
/home/data1/szq/Megadepth/Aerial_lifting_early/dji/process_lidar_mesh_szq/raw_pics/ed/pupper/images/survey/5e9cb7d7053b45c81e5bfbc35ae7020d3f706400.JPG,5e9cb7d7053b45c81e5bfbc35ae7020d3f706400.JPG,22.694512444,114.195486750,0,train
/home/data1/szq/Megadepth/Aerial_lifting_early/dji/process_lidar_mesh_szq/raw_pics/ed/pupper/images/survey/ddb885f8e00fef206d603a4b99f1de63d4b393c2.JPG,ddb885f8e00fef206d603a4b99f1de63d4b393c2.JPG,22.690799722,114.197319194,3,train
/home/data1/szq/Megadepth/Aerial_lifting_early/dji/process_lidar_mesh_szq/raw_pics/ed/pupper/images/survey/3709e14d5282d00e11b891c9a98273c600d9cbca.JPG,3709e14d5282d00e11b891c9a98273c600d9cbca.JPG,22.691652778,114.197252778,3,train
/home/data1/szq/Megadepth/Aerial_lifting_early/dji/process_lidar_mesh_szq/raw_pics/ed/pupper/images/survey/18346481a1055a00284a76c80c121962bf780ab2.JPG,18346481a1055a00284a76c80c121962bf780ab2.JPG,22.691291861,114.198860500,9,train
/home/data1/szq/Megadepth/Aerial_lifting_early/dji/process_lidar_mesh_szq/raw_pics/ed/pupper/images/survey/339ab7e402d1199ced9c20ebb0a36437ea27c48f.JPG,339ab7e402d1199ced9c20ebb0a36437ea27c48f.JPG,22.689080556,114.199076028,2,train
/home/data1/szq/Megadepth/Aerial_lifting_early/dji/process_lidar_mesh_szq/raw_pics/ed/pupper/images/survey/07b8f2522d744ccb9ec533f4976082d04d82a885.JPG,07b8f2522d744ccb9ec533f4976082d04d82a885.JPG,22.691617222,114.195838167,3,train
/home/data1/szq/Megadepth/Aerial_lifting_early/dji/process_lidar_mesh_szq/raw_pics/ed/pupper/images/survey/aa89efbe5ae1feab749938405e281edeb7be1b57.JPG,aa89efbe5ae1feab749938405e281edeb7be1b57.JPG,22.691371917,114.199071389,9,train
/home/data1/szq/Megadepth/Aerial_lifting_early/dji/process_lidar_mesh_szq/raw_pics/ed/pupper/images/survey/820f408217015f5b1e5feaaa0bddfca3ec7ef004.JPG,820f408217015f5b1e5feaaa0bddfca3ec7ef004.JPG,22.691115694,114.194552194,5,train
/home/data1/szq/Megadepth/Aerial_lifting_early/dji/process_lidar_mesh_szq/raw_pics/ed/pupper/images/survey/983571781ce0f02ed960a62b825e1e7b420cda52.JPG,983571781ce0f02ed960a62b825e1e7b420cda52.JPG,22.691323333,114.195085333,5,train
/home/data1/szq/Megadepth/Aerial_lifting_early/dji/process_lidar_mesh_szq/raw_pics/ed/pupper/images/survey/b89ab2a59c64b0f271d7d5857c6fdbe2a555314a.JPG,b89ab2a59c64b0f271d7d5857c6fdbe2a555314a.JPG,22.693223278,114.200216444,6,train
/home/data1/szq/Megadepth/Aerial_lifting_early/dji/process_lidar_mesh_szq/raw_pics/ed/pupper/images/survey/93792ae6052dce3d3bc5c886ba8f3eeac8dfa209.JPG,93792ae6052dce3d3bc5c886ba8f3eeac8dfa209.JPG,22.691642028,114.199295917,6,train
/home/data1/szq/Megadepth/Aerial_lifting_early/dji/process_lidar_mesh_szq/raw_pics/ed/pupper/images/survey/ae46e79b5e9eef656cc8ed6d3e68caaf2fb801b7.JPG,ae46e79b5e9eef656cc8ed6d3e68caaf2fb801b7.JPG,22.693256917,114.194982528,0,train
/home/data1/szq/Megadepth/Aerial_lifting_early/dji/process_lidar_mesh_szq/raw_pics/ed/pupper/images/survey/9fe9f3e53726ce8160bb70e20c508e9014cf076e.JPG,9fe9f3e53726ce8160bb70e20c508e9014cf076e.JPG,22.693345389,114.200528778,6,train
/home/data1/szq/Megadepth/Aerial_lifting_early/dji/process_lidar_mesh_szq/raw_pics/ed/pupper/images/survey/2a3681dab6bbfa9b5940d94fd6db8bf7d19a8d5d.JPG,2a3681dab6bbfa9b5940d94fd6db8bf7d19a8d5d.JPG,22.692145333,114.199182111,6,train
/home/data1/szq/Megadepth/Aerial_lifting_early/dji/process_lidar_mesh_szq/raw_pics/ed/pupper/images/survey/1ba9a8c10a0f9fe1eb79e3beda4613c9fb82f029.JPG,1ba9a8c10a0f9fe1eb79e3beda4613c9fb82f029.JPG,22.695166639,114.194134444,0,train
/home/data1/szq/Megadepth/Aerial_lifting_early/dji/process_lidar_mesh_szq/raw_pics/ed/pupper/images/survey/7889d80dba3e6fa8bd1789a904faa86b7f57b592.JPG,7889d80dba3e6fa8bd1789a904faa86b7f57b592.JPG,22.693698722,114.196048444,0,train
/home/data1/szq/Megadepth/Aerial_lifting_early/dji/process_lidar_mesh_szq/raw_pics/ed/pupper/images/survey/2c36c495320bb628d7b8959d672f7959035f1af3.JPG,2c36c495320bb628d7b8959d672f7959035f1af3.JPG,22.693325861,114.197140361,1,test
/home/data1/szq/Megadepth/Aerial_lifting_early/dji/process_lidar_mesh_szq/raw_pics/ed/pupper/images/survey/faa36f7cd159e852ea9c239fe2b649c46257633f.JPG,faa36f7cd159e852ea9c239fe2b649c46257633f.JPG,22.692134500,114.201011333,6,train
/home/data1/szq/Megadepth/Aerial_lifting_early/dji/process_lidar_mesh_szq/raw_pics/ed/pupper/images/survey/08e1281170773de6ccd5d94f6f1af557c69becee.JPG,08e1281170773de6ccd5d94f6f1af557c69becee.JPG,22.689023194,114.195819194,5,train
/home/data1/szq/Megadepth/Aerial_lifting_early/dji/process_lidar_mesh_szq/raw_pics/ed/pupper/images/survey/febb9b3c787dbb58054ef831a964b05724266961.JPG,febb9b3c787dbb58054ef831a964b05724266961.JPG,22.690510611,114.196578556,3,train
/home/data1/szq/Megadepth/Aerial_lifting_early/dji/process_lidar_mesh_szq/raw_pics/ed/pupper/images/survey/dc23dfba80aa765e8722bc096b5fee67cf5d9c1e.JPG,dc23dfba80aa765e8722bc096b5fee67cf5d9c1e.JPG,22.690086806,114.200126778,6,train
/home/data1/szq/Megadepth/Aerial_lifting_early/dji/process_lidar_mesh_szq/raw_pics/ed/pupper/images/survey/bd2eca6c46f95e58f0894b69fa520238c5e928f6.JPG,bd2eca6c46f95e58f0894b69fa520238c5e928f6.JPG,22.692961417,114.195127556,0,train
/home/data1/szq/Megadepth/Aerial_lifting_early/dji/process_lidar_mesh_szq/raw_pics/ed/pupper/images/survey/14741aae84bee80aea83a2235d6ee953f130acd1.JPG,14741aae84bee80aea83a2235d6ee953f130acd1.JPG,22.695139917,114.197692417,4,train
/home/data1/szq/Megadepth/Aerial_lifting_early/dji/process_lidar_mesh_szq/raw_pics/ed/pupper/images/survey/ae8aaadd1ccedc5d491ce3119dbd182dd7f41f6a.JPG,ae8aaadd1ccedc5d491ce3119dbd182dd7f41f6a.JPG,22.691934611,114.197582278,9,train
/home/data1/szq/Megadepth/Aerial_lifting_early/dji/process_lidar_mesh_szq/raw_pics/ed/pupper/images/survey/08f5778711fab0ed37845f2ae9cbd691abfc9763.JPG,08f5778711fab0ed37845f2ae9cbd691abfc9763.JPG,22.694409861,114.198950972,7,train
/home/data1/szq/Megadepth/Aerial_lifting_early/dji/process_lidar_mesh_szq/raw_pics/ed/pupper/images/survey/7b940b9a6a963fcc835f2f5c278209c13e47390a.JPG,7b940b9a6a963fcc835f2f5c278209c13e47390a.JPG,22.694417194,114.198138889,1,test
/home/data1/szq/Megadepth/Aerial_lifting_early/dji/process_lidar_mesh_szq/raw_pics/ed/pupper/images/survey/5301f2b9c802a26e6caa30a6029eabca330169f1.JPG,5301f2b9c802a26e6caa30a6029eabca330169f1.JPG,22.693986694,114.197807417,1,test
/home/data1/szq/Megadepth/Aerial_lifting_early/dji/process_lidar_mesh_szq/raw_pics/ed/pupper/images/survey/0f09dda1d103a6b62866310d20a8e6fb69b60288.JPG,0f09dda1d103a6b62866310d20a8e6fb69b60288.JPG,22.691116750,114.196370278,3,train
/home/data1/szq/Megadepth/Aerial_lifting_early/dji/process_lidar_mesh_szq/raw_pics/ed/pupper/images/survey/e210159bdf9e0b7e1aa44022fcc846e1ffd35afa.JPG,e210159bdf9e0b7e1aa44022fcc846e1ffd35afa.JPG,22.691845250,114.197803944,9,train
/home/data1/szq/Megadepth/Aerial_lifting_early/dji/process_lidar_mesh_szq/raw_pics/ed/pupper/images/survey/067d3a1dda58b08fa7cf9e752e2ce2fd2bada385.JPG,067d3a1dda58b08fa7cf9e752e2ce2fd2bada385.JPG,22.691375167,114.196250583,3,train
/home/data1/szq/Megadepth/Aerial_lifting_early/dji/process_lidar_mesh_szq/raw_pics/ed/pupper/images/survey/37e07b628815c85632758a6c8ce00e66499614e6.JPG,37e07b628815c85632758a6c8ce00e66499614e6.JPG,22.692868667,114.195566889,0,train
/home/data1/szq/Megadepth/Aerial_lifting_early/dji/process_lidar_mesh_szq/raw_pics/ed/pupper/images/survey/04a6e8d015a5aaf2e78dfdbc4c835e9484ec55cd.JPG,04a6e8d015a5aaf2e78dfdbc4c835e9484ec55cd.JPG,22.691746528,114.196163750,3,train
/home/data1/szq/Megadepth/Aerial_lifting_early/dji/process_lidar_mesh_szq/raw_pics/ed/pupper/images/survey/ef24ea8dfbf47a15eca8483b78b5251d2653a3e9.JPG,ef24ea8dfbf47a15eca8483b78b5251d2653a3e9.JPG,22.691376556,114.192616194,8,test
/home/data1/szq/Megadepth/Aerial_lifting_early/dji/process_lidar_mesh_szq/raw_pics/ed/pupper/images/survey/b07c915e731765e2f7fe38d0e00b86073ffc9d8d.JPG,b07c915e731765e2f7fe38d0e00b86073ffc9d8d.JPG,22.696419056,114.195621583,4,train
/home/data1/szq/Megadepth/Aerial_lifting_early/dji/process_lidar_mesh_szq/raw_pics/ed/pupper/images/survey/c2162be438ccffe640708765c6df7ed4596ec4ce.JPG,c2162be438ccffe640708765c6df7ed4596ec4ce.JPG,22.693557667,114.198532500,1,test
/home/data1/szq/Megadepth/Aerial_lifting_early/dji/process_lidar_mesh_szq/raw_pics/ed/pupper/images/survey/f48d8569f82775627117907b86c610cf1d90ef05.JPG,f48d8569f82775627117907b86c610cf1d90ef05.JPG,22.691198889,114.194768111,5,train
/home/data1/szq/Megadepth/Aerial_lifting_early/dji/process_lidar_mesh_szq/raw_pics/ed/pupper/images/survey/7d6311ffcf044787db6535cd1f08d4ebc4541143.JPG,7d6311ffcf044787db6535cd1f08d4ebc4541143.JPG,22.695188028,114.197307556,4,train
